,h_name,h_address,h_latitude,h_longitude,h_categories,h_id,t_name,t_address,t_latitude,t_longitude,t_categories,t_id,relationship
0,"Department of Environment, Land, Water and Planning",8 Nicholson Street 3002,-37.8083722,144.9734604,office,OSM-8189021215,Hotel Ovolo,19 Little Bourke Street 3000,-37.8107508,144.9719983,hotel,OSM-225419339,0
1,Kmart,,-37.7571975,145.3121216,department_store,OSM-2177939909,Mycar,,-37.75870297220106,145.31173891793594,car_repair,YELP-4119741698,0
2,Parliament of Victoria,,-37.81487425484718,145.22774003456328,office,YELP-9345244597,Eastland,175 Maroondah Highway 3134,-37.813042,145.2291281,mall,OSM-980791081,2
3,Burns,,-37.8143736,144.9747175,historic,OSM-4469523489,Hotel Ovolo,19 Little Bourke Street 3000,-37.8107508,144.9719983,hotel,OSM-225419339,0
4,Crana Grove,,-37.6867469,145.1055692,bus_stop,OSM-9657519196,Apollo Parkways Shopping Centre,Civic Drive,-37.6877555,145.1082048,mall,OSM-288147900,0
5,Newport Library,13 Mason Street 3015,-37.8429213,144.8816867,library,OSM-3465707243,Newport Community Hub,13 Mason Street 3015,-37.8429738,144.8816964,community_centre,OSM-514213764,2
6,Dura-Wear,,-37.8129175,144.9539699,clothes,OSM-9652409034,William Angliss Institute,555 La Trobe Street 3000,-37.8132797,144.9530117,college,OSM-191523966,2
7,Eltham Ridge Pharmacy,284 Bolton Street 3095,-37.7199276,145.1377917,chemist,OSM-1876465754,Eltham Ridge Pharmacy,,-37.71999007040938,145.13752409283362,chemist,YELP-1876465754,1
8,Zamel's Diamond Centre,,-37.814491,144.965813,jewelry,OSM-664318260,State Library of Victoria,328 Swanston Street 3000,-37.8097018,144.965488,library,OSM-22820458,0
9,Southern Cross Trophies and Awards Corporate,157 Victoria Parade 3066,-37.8091704,144.9884807,trophy,OSM-9065755931,The Hive,313-325 Victoria Street 3067,-37.8097238,144.9955377,mall,OSM-69963105,0
10,BWS,189 Reynolds Road 3109,-37.7636992,145.1714989,alcohol,OSM-527875856,Pines Learning & Activity Centre,520 Blackburn Road 3109,-37.7604696,145.1694083,community_centre,OSM-175839231,0
11,Tam tam restaurant,1 Lygon Street 3053,-37.80679,144.965667,restaurant,OSM-477075427,RMIT University,124 La Trobe Street 3000,-37.8082251,144.9645927,university,OSM-616082731,0
12,Chadstone Shopping Centre (Bay 6) ,,-37.8880197,145.0836141,bus_stop,OSM-9837569474,Chadstone Shopping Centre,1341 Dandenong Road 3148,-37.8861084,145.082353,mall,OSM-25806278,3
13,Vien Dai,,-37.9501756,145.1505712,seafood,OSM-5213608170,Springvale Shopping Centre,46-58 Buckingham Avenue,-37.950335,145.1506972,mall,OSM-221010715,2
14,Mr Tulk,,-37.8095603,144.9646236,cafe,OSM-1427579135,Mr Tulk,,-37.8095304,144.9646420,cafe,OSM-9727579102,1
15,John Curtin Hotel,29 Lygon St 3053,-37.8062,144.965856,Bars; Music Venues; Restaurants,YELP-f6higk13BeBR0dSNhaqQLw,Ibis Hotel Melbourne,15-21 Therry Street,-37.8069455,144.9612899,hotel,OSM-310012725,0
16,Xin Fang Supermarket,,-37.808246,144.955088,supermarket,OSM-2140979575,Pegasus Apart'Hotel,206 A'Beckett Street 3000,-37.8100667,144.9570933,hotel,OSM-245924501,0
17,The Salvation Army,,-37.8697131,145.2429412,charity,OSM-395212081,Red Salmon,,-37.8691218,145.2430452,restaurant,OSM-627186066,0
18,Kathmandu,,-37.8140886,145.2284563,outdoor,OSM-8697022231,Waterman,,-37.8143332494836,145.23010230525855,office,YELP-9345244601,0
19,Intelematics,,-37.8154986,144.9599323,office,OSM-6849310432,Owen Dixon Chambers West,525 Lonsdale Street 3000,-37.8142242,144.9566218,office,OSM-49961338,0
20,Knox City Shopping Centre (Bay 3),,-37.8694048,145.238404,bus_stop,OSM-571731170,Westfield Knox Shopping Centre,425 Burwood Highway 3152,-37.8689832,145.2414832,mall,OSM-24026232,3
21,Big W,,-37.8117219,145.2294606,department_store,OSM-766675819,Eastland,175 Maroondah Highway 3134,-37.813042,145.2291281,mall,OSM-980791081,2
22,Rivers,,-37.8705308,145.2435911,clothes,OSM-5621081186,Westfield Knox Shopping Centre,425 Burwood Highway 3152,-37.8689832,145.2414832,mall,OSM-24026232,2
23,Southern Cross Station,,-37.818124,144.953581,bicycle_rental,OSM-907778401,Owen Dixon Chambers East,205 William Street 3000,-37.8143576,144.957153,office,OSM-264277957,0
24,Canteen,,-37.8327991,144.9560049,cafe,OSM-9652383290,South Melbourne Market,322-326 Coventry Street 3205,-37.8323031,144.9565361,marketplace,OSM-26104523,2
25,Lavezzi Gelateria,171-175 Maroondah Highway 3134,-37.8142237,145.229153,ice_cream,OSM-7573754764,Eastland,175 Maroondah Highway 3134,-37.813042,145.2291281,mall,OSM-980791081,2
26,Royale Food Store,58-62 Spencer Street 3000,-37.8194472,144.9545732,convenience,OSM-642429650,Crown Entertainment Complex,8 Whiteman Street 3006,-37.8233312,144.958697,casino,OSM-13306836,0
27,Mighty Bear Chinese Grill,2835aaddr:interpolation Victoria Street 3121,-37.8097508,144.9940468,restaurant,OSM-8424027727,The Hive,313-325 Victoria Street 3067,-37.8097238,144.9955377,mall,OSM-69963105,0
28,Sushi Sushi,,-37.9117253,145.1331591,fast_food,OSM-9124869224,"Monash University, Clayton Campus",151-211 Wellington Road,-37.9106345,145.1364732,university,OSM-10585250,2
29,Hunter & Barrel,171-175 Maroondah Highway 3134,-37.814485,145.2291767,restaurant,OSM-3813754395,mycar Tyre & Auto,Ringwood Street 3134,-37.8112803,145.2277163,car_repair,OSM-8943168500,0
30,Café Godot,152 Sturt Street,-37.8254083,144.9662497,cafe,OSM-7068189155,Coopers Malthouse Theatre,113 Sturt Street 3006,-37.8271233,144.9669767,theatre,OSM-14498315,0
31,The Moat Bar & Café,,-37.8093726630182,144.96528594122814,bar,YELP-8650626510,State Library of Victoria,328 Swanston Street 3000,-37.8097018,144.965488,library,OSM-22820458,2
32,Canteen,,-37.8327035,144.9560688,cafe,OSM-6652383323,Canteen,,-37.8327606,144.9560907,cafe,OSM-5972383419,1
33,Schnitz,,-37.7739808,144.8890667,fast_food,OSM-0881801906,Highpoint Shopping Centre,120-200 Rosamond Road 3032,-37.7732769,144.8887895,mall,OSM-29315932,2
34,Julia Gillard Library,,-37.8359549084452,144.6966067685617,library,YELP-3844114444,Tarneit Community Learning Centre,150 Sunset Views Boulevard 3029,-37.8354735,144.6960699,community_centre,OSM-381420680,2
35,Bistrot d'Orsay,184 Collins Street 3000,-37.815058,144.967541,restaurant,OSM-4716883908,Ian Potter Centre: NGV Australia,Federation Square 3000,-37.8175394,144.9699711,museum,OSM-22963243,0
36,Parliament of Victoria,171-175 Maroondah Highway 3134,-37.8146821,145.2277156,office,OSM-9345244597,Parliament of Victoria,,-37.81487425484718,145.22774003456328,office,YELP-9345244597,1
37,EnTHAIced,,-37.75698582637890,145.3533715270583,restaurant,YELP-6003799097,Lilydale Village,51-59 Anderson Street 3140,-37.7564564,145.3541724,mall,OSM-205419047,2
38,Cafe Aya,,-37.8461226,145.1132789,cafe,OSM-7886639795,Deakin University,221 Burwood Highway 3125,-37.8476637,145.1148614,university,OSM-180360037,2
39,Lemon Leaf,,-37.8691562,145.2432803,restaurant,OSM-042776687,Westfield Knox Shopping Centre,425 Burwood Highway 3152,-37.8689832,145.2414832,mall,OSM-24026232,2
40,Suave Furniture,179 Rosamond Road Shop 8 3032,-37.7715766,144.8833743,furniture,OSM-6696512747,Highpoint Shopping Centre,120-200 Rosamond Road 3032,-37.7732769,144.8887895,mall,OSM-29315932,0
41,Orient East,348 St Kilda Rd 3004,-37.831003,144.970887,Restaurants,YELP-SbQT4JLldd6NfEOKOK_vwA,Orient East,348 St Kilda Road 3004,-37.8309252,144.9709131,restaurant,OSM-768252658,1
42,KFC,401 Swanston Street,-37.8090361,144.9632481,fast_food,OSM-5982185664,State Library of Victoria,328 Swanston Street 3000,-37.8097018,144.965488,library,OSM-22820458,0
43,Orient East,348 St Kilda Road 3004,-37.8309818,144.9709876,restaurant,OSM-349252834,Seasons Botanic Gardens Melbourne,348 St Kilda Road 3004,-37.8309857,144.9704022,hotel,OSM-220687203,2
44,7-Eleven,,-37.7291447,144.7410907,fuel,OSM-496815653,CS Square Shopping Centre,29-35 Lake Street,-37.7316731,144.7429396,mall,OSM-542249993,0
45,Foothills Veterinary Clinic,,-37.8828910,145.2944514,veterinary,OSM-3227924051,Village Court,101 Station Street 3156,-37.8826049,145.2944984,mall,OSM-1027660472,2
46,J.Lo Magic,,-37.8136272,144.9664234,hairdresser,OSM-4976357656,State Library of Victoria,328 Swanston Street 3000,-37.8097018,144.965488,library,OSM-22820458,0
47,Knox City Shopping Centre (Bay 7) ,,-37.8693420,145.2388573,bus_stop,OSM-786076727,Westfield Knox Shopping Centre,425 Burwood Highway 3152,-37.8689832,145.2414832,mall,OSM-24026232,3
48,Upstanding Citizens,,-37.8211524,144.9492866,cafe,OSM-6856350987,South Wharf DFO,20 Convention Centre Place,-37.825147,144.9496339,mall,OSM-107666594,0
49,Mountain Designs,373 Little Bourke Street 3000,-37.8136451,144.96167,outdoor,OSM-1030460093,RMIT University,124 La Trobe Street 3000,-37.8082251,144.9645927,university,OSM-616082731,0
50,Lovisa,,-37.698863,144.775856,jewelry,OSM-9447383573,Watergardens Town Centre,399 Melton Highway 3038,-37.7006402,144.775359,mall,OSM-33658236,2
51,Caltex,,-37.759091804919365,145.310986628134,fuel,YELP-9359844849,Caltex,239-241 Maroondah Highway 3116,-37.7588425,145.3110373,fuel,OSM-9359844849,1
52,Lavezzi Gelateria,,-37.8142181,145.229152,ice_cream,OSM-3073754662,Eastland,175 Maroondah Highway 3134,-37.813042,145.2291281,mall,OSM-980791081,2
53,Timezone,,-37.8131455720094,145.2299178576361,leisure,YELP-8275244254,Eastland,175 Maroondah Highway 3134,-37.813042,145.2291281,mall,OSM-980791081,2
54,Clarinda Library,58 Viney Street 3169,-37.9402769,145.1022687,library,OSM-2130544814,Clarinda Community Centre,58 Viney Street 3169,-37.9404235,145.1022194,community_centre,OSM-56753242,2
55,Newport Library,,-37.84275182218107,144.8821579157324,library,YELP-9785707850,Newport Community Hub,13 Mason Street 3015,-37.8429738,144.8816964,community_centre,OSM-514213764,2
56,The Atlantic,,-37.8224816,144.9589014,restaurant,OSM-2421608387,Baxter Institute (Automotive and Bakery Campus),93 Queens Bridge Street 3006,-37.8241579,144.960947,college,OSM-154296996,0
57,Oli & Levi Galleria,385 Bourke Street 3000,-37.814664,144.96252,cafe,OSM-2110273891,RMIT University,124 La Trobe Street 3000,-37.8082251,144.9645927,university,OSM-616082731,0
58,Starbucks,,-37.8097815,144.9637763,cafe,OSM-5191044921,RMIT University,3010,-37.8058398,144.9652999,university,OSM-26564452,0
59,Liquorland,,-37.8685376,145.2412711,alcohol,OSM-1789481250,Westfield Knox Shopping Centre,425 Burwood Highway 3152,-37.8689832,145.2414832,mall,OSM-24026232,2
60,Optus,,-37.8135111,144.9662351,mobile_phone,OSM-663937408,RMIT University,124 La Trobe Street 3000,-37.8082251,144.9645927,university,OSM-616082731,0
61,Seafood Centre,,-37.9509083,145.1515787,seafood,OSM-5195525699,Springvale Shopping Centre,46-58 Buckingham Avenue,-37.950335,145.1506972,mall,OSM-221010715,0
62,T'relek,,-37.8101149,144.9954507,restaurant,OSM-1066988194,The Hive,313-325 Victoria Street 3067,-37.8097238,144.9955377,mall,OSM-69963105,0
63,Domino's Pizza,,-37.8007253,144.9650751,restaurant,OSM-3391970678,RMIT University,3010,-37.8058398,144.9652999,university,OSM-26564452,0
64,Parliament of Victoria,,-37.81483678494213,145.22772301399987,office,YELP-6635244568,Eastland,175 Maroondah Highway 3134,-37.813042,145.2291281,mall,OSM-980791081,2
65,Mobi Contract,9-15 Queens Bridge Street 3006,-37.822311,144.961438,furniture,OSM-2267884244,Crown Entertainment Complex,8 Whiteman Street 3006,-37.8233312,144.958697,casino,OSM-13306836,0
66,Coles,Chadstone,-37.8855399,145.0845484,supermarket,OSM-280897051,Moncler,,-37.8858235,145.0815652,clothes,OSM-8551641402,0
67,Eckersley's Art & Craft,,-37.8081481,144.9611501,craft,OSM-4912621009,State Library of Victoria,328 Swanston Street 3000,-37.8097018,144.965488,library,OSM-22820458,0
68,Witchery,,-38.1410552,145.1243623,clothes,OSM-8539606629,Bayside Shopping Centre,28 Beach Street,-38.1417972,145.1239964,mall,OSM-683846477,2
69,Photo Plus,,-37.812143,144.965224,photo,OSM-3412044593,State Library of Victoria,328 Swanston Street 3000,-37.8097018,144.965488,library,OSM-22820458,0
70,Ink and Spindle,,-37.8033543,145.0044093,printmaking,OSM-6143872246,Ink and Spindle,,-37.8033204,145.0044694,printmaking,OSM-5393872960,1
71,Boost,,-37.8079912,144.9600149,beverages,OSM-3881388144,State Library of Victoria,328 Swanston Street 3000,-37.8097018,144.965488,library,OSM-22820458,0
72,John Barnes,,-37.8048243,144.9592085,locksmith,OSM-3132401436,Ibis Hotel Melbourne,15-21 Therry Street,-37.8069455,144.9612899,hotel,OSM-310012725,0
73,Apple Chadstone,Chadstone Shopping Centre 3148,-37.886249,145.08270,Mobile Phones,YELP-656jXCH31lYRKo_TQ3D783,Chadstone Shopping Centre,1341 Dandenong Road 3148,-37.8861084,145.082353,mall,OSM-25806278,2
74,Hoyts,,-37.6987884,144.7751651,cinema,OSM-385040567,Watergardens Town Centre,399 Melton Highway 3038,-37.7006402,144.775359,mall,OSM-33658236,2
75,ALDI,,-38.1397245,145.1260161,supermarket,OSM-9452105441,Bayside Shopping Centre,28 Beach Street,-38.1400526,145.1254513,mall,OSM-845391428,2
76,Subway,,-38.1425932,145.2087254,fast_food,OSM-369641656,Langwarrin Shopping Centre,385 Cranbourne - Frankston Road 3910,-38.1418167,145.2081246,mall,OSM-32802527,2
77,VIP Kitchens,2/308-310 Springvale Road,-37.9541815,145.1517175,restaurant,OSM-5213707922,Springvale Shopping Centre,46-58 Buckingham Avenue,-37.950335,145.1506972,mall,OSM-221010715,0
78,What If,,-37.95054,145.1509548,clothes,OSM-9235977004,Springvale Shopping Centre,46-58 Buckingham Avenue,-37.950335,145.1506972,mall,OSM-221010715,2
79,Joe's Pizza Cafe,,-37.9116477,145.1357992,fast_food,OSM-2115663710,"Monash University, Clayton Campus",151-211 Wellington Road,-37.9106345,145.1364732,university,OSM-10585250,2
80,Lux Hair,,-37.7369035,144.9690105,hairdresser,OSM-2481821532,Former Pentridge Prison Site,Champ Street 3058,-37.7362136,144.9687891,historic,OSM-290084770,2
81,La Crêperie Saint Germain,280 Collins Street 9 3000,-37.8154129,144.9643495,restaurant,OSM-6765421858,RMIT University,124 La Trobe Street 3000,-37.8082251,144.9645927,university,OSM-616082731,0
82,Naneez Sock Shop,,-37.8325972,144.9565181,clothes,OSM-5294173173,South Melbourne Market,322-326 Coventry Street 3205,-37.8323031,144.9565361,marketplace,OSM-26104523,2
83,EnTHAIced,20-22 Castella Street 3140,-37.7562176,145.3538067,restaurant,OSM-5433799811,Lilydale Village,51-59 Anderson Street 3140,-37.7564564,145.3541724,mall,OSM-205419047,2
84,Cafenatics,,-37.8141709,144.9676132,cafe,OSM-4976357658,State Library of Victoria,328 Swanston Street 3000,-37.8097018,144.965488,library,OSM-22820458,0
85,Newworld,,-37.7847119,144.8323501,travel_agency,OSM-5824764113,Brimbank Community and Civic Centre,301 Hampshire Road 3020,-37.7831654,144.8320592,townhall,OSM-616285439,0
86,Knox City Shopping Centre (Bay 9) ,,-37.8695666,145.2382489,bus_stop,OSM-021676668,Westfield Knox Shopping Centre,425 Burwood Highway 3152,-37.8689832,145.2414832,mall,OSM-24026232,3
87,Be Be Tea,,-37.7780715,144.851,beverages,OSM-5279182209,HomeCo,Braybrook,-37.7784355,144.8509618,mall,OSM-112437488,2
88,Northland Shopping Centre (Bay 3) ,,-37.7404606,145.0283390,bus_stop,OSM-6967107778,Northland Shopping Centre,2-50 Murray Road 3072,-37.73846,145.0299923,mall,OSM-434341796,3
89,Vita Medical Centre,,-37.8095864,144.9607994,clinic,OSM-3841976783,RMIT University,124 La Trobe Street 3000,-37.8082251,144.9645927,university,OSM-616082731,0
90,Ritchie's IGA,,-37.79467210897847,145.2351802668148,supermarket,YELP-2488928367,Ritchie's IGA,204 Warrandyte Road 3134,-37.794116,145.2356577,supermarket,OSM-2488928367,1
91,Princes Bridge Foundation Stone,,-37.8198278,144.9683249,historic,OSM-6429782994,ABC Southbank Centre,120 Southbank Boulevard 3006,-37.8239868,144.9665183,studio,OSM-71188951,0
92,Bevmarks Sleep Proffesionals,282 Maroondah Highway 3116,-37.7660456,145.305799,furniture,OSM-1835087150,Chirnside Homemaker Centre,282 Maroondah Highway 3116,-37.7663845,145.3058855,mall,OSM-207536171,2
93,Oakleigh Station ,,-37.8994054,145.0875498,bus_stop,OSM-945404930,Oakleigh Market,12 Chester Street,-37.8997252,145.0892318,marketplace,OSM-168808800,3
94,Clothier Anderson,,-37.8056249,144.966299,office,OSM-7228362156,RMIT University,3010,-37.8058398,144.9652999,university,OSM-26564452,0
95,Plush,,-37.8682377,145.2444712,furniture,OSM-529776674,Pulse,,-37.8689094,145.2407093,pharmacy,OSM-1399481315,0
96,Church of Secular Coffee,,-37.9114390,145.1343697,cafe,OSM-1026133276,"Monash University, Clayton Campus",151-211 Wellington Road,-37.9106345,145.1364732,university,OSM-10585250,2
97,Yarra Link Project,,-37.83299,145.0218679,leisure,OSM-3473294725,The University of Melbourne Burnley Campus,500 Yarra Boulevard 3121,-37.828804,145.0228204,university,OSM-30973454,0
98,IGA,,-37.68701627158234,145.10755626802598,supermarket,YELP-6250369381,Apollo Parkways Shopping Centre,Civic Drive,-37.6877555,145.1082048,mall,OSM-288147900,2
99,South Melbourne Central Car Park,,-37.8298123,144.9572849,parking,OSM-3695304687,South Melbourne Market,322-326 Coventry Street 3205,-37.8323031,144.9565361,marketplace,OSM-26104523,3
100,Oscar Oscar Salons Highpoint,,-37.771936828321714,144.88933774087812,hairdresser,YELP-5535201246,Oscar Oscar Salons Highpoint,120-200 Rosamond Road 3032,-37.7726765,144.8892974,hairdresser,OSM-5535201246,1
101,Beaurepaires,,-37.8680095,145.2433019,car_repair,OSM-395776625,Westfield Knox Shopping Centre,425 Burwood Highway 3152,-37.8689832,145.2414832,mall,OSM-24026232,2
102,Goodlife Health Clubs,,-37.81456070005702,145.22878016074054,leisure,YELP-9345227128,Goodlife Health Clubs,171-175 Maroondah Highway 3134,-37.8146629,145.2292306,leisure,OSM-9345227128,1
103,The Moat Bar & Café,176 Little Lonsdale Street 3000,-37.8101724,144.9652411,bar,OSM-2240626119,State Library of Victoria,328 Swanston Street 3000,-37.8097018,144.965488,library,OSM-22820458,2
104,RMIT Gallery,"16, 344 Swanston Street 3000",-37.8090747,144.9639057,attraction,OSM-4957928427,RMIT Gallery,344 Swanston St 3000,-37.809068,144.963777,Art Galleries,YELP-qTcYCmYcKnyt9FqOHfT-9w,1
105,Parliament of Victoria,171-175 Maroondah Highway 3134,-37.8146403,145.2277474,office,OSM-9825244377,Eastland,175 Maroondah Highway 3134,-37.813042,145.2291281,mall,OSM-980791081,2
106,O Bento,,-37.817403,144.9575173,fast_food,OSM-9632344533,Epic Centre,620 Bourke Street 3000,-37.8162335,144.955325,office,OSM-51710858,0
107,Padre Coffee,,-37.8325805,144.9563516,coffee,OSM-4724158489,South Melbourne Market,322-326 Coventry Street 3205,-37.8323031,144.9565361,marketplace,OSM-26104523,2
108,Liquorland,,-37.8685878,145.2412082,alcohol,OSM-1399481302,Liquorland,,-37.8685376,145.2412711,alcohol,OSM-1789481250,1
109,The Wheeler Centre,,-37.80972504977527,144.96541611884517,,YELP-0743344990,State Library of Victoria,328 Swanston Street 3000,-37.8097018,144.965488,library,OSM-22820458,2
110,Jasper Coffee,Chadstone Shopping Centre 3148,-37.885964,145.082402,Coffee & Tea; Restaurants,YELP-rttUAInuUsZMKAGCrgIbTA,Jasper Coffee,,-37.8859197,145.0833668,cafe,OSM-5038205821,1
111,Kmart,Chadstone Shopping Centre 3145,-37.886116,145.082724,Department Stores,YELP-_1WBaOeMf3IjTMNiLvm3yA,Chadstone Shopping Centre,1341 Dandenong Road 3148,-37.8861084,145.082353,mall,OSM-25806278,2
112,Jasper Coffee,,-37.8859547,145.0833072,cafe,OSM-3108205532,Chadstone Shopping Centre,1341 Dandenong Road 3148,-37.8861084,145.082353,mall,OSM-25806278,2
113,Ippudo,18-22 Artemis Lane 3000,-37.8104586,144.9663415,restaurant,OSM-8911149940,RMIT University,3010,-37.8058398,144.9652999,university,OSM-26564452,0
114,ALDI,,-37.7563186,145.3121066,supermarket,OSM-9957939960,Chirnside Park Shopping Centre,239-241 Maroondah Highway 3116,-37.7582999,145.312862,mall,OSM-111978002,2
115,Village Cinemas Crown,8 Whiteman Street Shop 50 3006,-37.8242677,144.9577541,cinema,OSM-496943527,Crown Food Court,,-37.8233185,144.9573055,food_court,OSM-2421608368,0
116,Doughboys,,-37.81595,144.957933,cafe,OSM-4122971689,The Great Southern Hotel,44 Spencer Street 3000,-37.8196856,144.9548897,hotel,OSM-50504748,0
117,Knox City Shopping Centre (Bay 10) ,,-37.869486,145.237985,bus_stop,OSM-745773115,Westfield Knox Shopping Centre,425 Burwood Highway 3152,-37.8689832,145.2414832,mall,OSM-24026232,3
118,Australia Post,65-67 Station Street,-37.8836125,145.2952914,post_office,OSM-265959443,Village Court,101 Station Street 3156,-37.8826049,145.2944984,mall,OSM-1027660472,0
119,Tiffany & Company,,-37.8863314,145.0808869,jewelry,OSM-6131749103,Chadstone Shopping Centre,1341 Dandenong Road 3148,-37.8861084,145.082353,mall,OSM-25806278,2
120,Kobe Jones Melbourne,38 Siddeley Street 3005,-37.8231181,144.954088,restaurant,OSM-1996463726,Crown Entertainment Complex,8 Whiteman Street 3006,-37.8233312,144.958697,casino,OSM-13306836,0
121,Victorian Clinical Genetics Services,Flemington Road Royal Children's Hospital 3052,-37.7936604,144.9496822,clinic,OSM-7834086121,Victorian Clinical Genetics Services,,-37.794383920995855,144.9502570430547,clinic,YELP-7834086121,1
122,Kmart,,-37.869325,145.2416825,department_store,OSM-218775466,Westfield Knox Shopping Centre,425 Burwood Highway 3152,-37.8689832,145.2414832,mall,OSM-24026232,2
123,Grafali's Coffee Roasters,,-37.911849,145.133169,cafe,OSM-8694869157,"Monash University, Clayton Campus",151-211 Wellington Road,-37.9106345,145.1364732,university,OSM-10585250,2
124,Victorian Clinical Genetics Services,,-37.794369479494103,144.9502110340164,clinic,YELP-7244086615,Royal Children's Hospital,50 Flemington Road,-37.7934267,144.9499297,hospital,OSM-25583774,2
125,Northland Shopping Centre (Bay 8) ,,-37.7404319,145.0280800,bus_stop,OSM-7782360191,Northland Shopping Centre,2-50 Murray Road 3072,-37.73846,145.0299923,mall,OSM-434341796,3
126,Ferguson Plarre,,-37.69939460842969,144.77780687800143,cafe,YELP-7561569459,Ferguson Plarre,399 Melton Highway 6 3038,-37.6990138,144.7780285,cafe,OSM-7561569459,1
127,Whitehouse Institute of Design,,-37.816697,144.953793,office,OSM-962623616,William Angliss Institute,555 La Trobe Street 3000,-37.8132797,144.9530117,college,OSM-191523966,0
128,Christian Science Reading Room,340 St Kilda Road 3004,-37.830484,144.97086,library,OSM-582730921,Coopers Malthouse Theatre,113 Sturt Street 3006,-37.8271233,144.9669767,theatre,OSM-14498315,0
129,Urban Pharmacy,,-37.8117488,144.9605325,pharmacy,OSM-4509652396,Owen Dixon Chambers West,525 Lonsdale Street 3000,-37.8142242,144.9566218,office,OSM-49961338,0
130,Bakers Delight,,-37.79470507785752,145.2354863284953,bakery,YELP-4349505283,Ringwood North Shopping Centre,204-206 Warrandyte Road 3134,-37.7942813,145.2359728,mall,OSM-980385416,2
131,Melbourne Custody Centre,,-37.8134,144.957,police,OSM-1973352758,Pegasus Apart'Hotel,206 A'Beckett Street 3000,-37.8100667,144.9570933,hotel,OSM-245924501,0
132,Abbotsford Street/Haines Street,,-37.7986286,144.9468215,bus_stop,OSM-4460254012,Royal Children's Hospital,50 Flemington Road,-37.7934267,144.9499297,hospital,OSM-25583774,0
133,Cash Converters,,-38.1409772,145.121628,pawnbroker,OSM-8893748616,Bayside Shopping Centre,28 Beach Street,-38.1400526,145.1254513,mall,OSM-845391428,0
134,Cellarbrations,191 Exhibition Street 3000,-37.811357,144.969983,alcohol,OSM-726968768,RMIT University,124 La Trobe Street 3000,-37.8082251,144.9645927,university,OSM-616082731,0
135,Hoyts,,-37.81281692705006,145.23056332777782,cinema,YELP-857868722,Eastland,175 Maroondah Highway 3134,-37.813042,145.2291281,mall,OSM-980791081,2
136,GJ's Grill,243 Franklin Street Shop 2,-37.8098639,144.956785,restaurant,OSM-8562311369,Owen Dixon Chambers East,205 William Street 3000,-37.8143576,144.957153,office,OSM-264277957,0
137,Commonwealth Bank,,-37.8132642,144.9596912,atm,OSM-1282403459,Pegasus Apart'Hotel,206 A'Beckett Street 3000,-37.8100667,144.9570933,hotel,OSM-245924501,0
138,Cotton On,,-37.7996342,144.966917,clothes,OSM-678363116,RMIT University,3010,-37.8058398,144.9652999,university,OSM-26564452,0
139,Letsave,8 Power Street 3006,-37.8234909,144.961023,convenience,OSM-7837666524,ABC Southbank Centre,120 Southbank Boulevard 3006,-37.8239868,144.9665183,studio,OSM-71188951,0
140,Invite Me,66 Anderson Street 3013,-37.8162793,144.8880698,gift,OSM-4905647510,Sun Theatre,8 Ballarat Street 3013,-37.8159842,144.8906458,cinema,OSM-499454977,0
141,Union Electric,,-37.8117775,144.96666,bar,OSM-5583285645,State Library of Victoria,328 Swanston Street 3000,-37.8097018,144.965488,library,OSM-22820458,0
142,Rock Pool Bar & Grill,,-37.8218439,144.9600789,restaurant,OSM-2421608390,Crown Entertainment Complex,8 Whiteman Street 3006,-37.8233312,144.958697,casino,OSM-13306836,2
143,Lien Phat,,-37.9508476,145.1509596,houseware,OSM-7775526452,Springvale Shopping Centre,46-58 Buckingham Avenue,-37.950335,145.1506972,mall,OSM-221010715,2
144,French Cafe,,-37.7781413,144.8507593,cafe,OSM-0869182974,HomeCo,Braybrook,-37.7784355,144.8509618,mall,OSM-112437488,2
145,Hunky Dory,,-37.8143332,145.2286846,fast_food,OSM-0593754650,Eastland,175 Maroondah Highway 3134,-37.813042,145.2291281,mall,OSM-980791081,2
146,Jasper Coffee,,-37.8859761,145.0833701,cafe,OSM-8448205847,Chadstone Shopping Centre,1341 Dandenong Road 3148,-37.8861084,145.082353,mall,OSM-25806278,2
147,Priceline Pharmacy,,-37.6983293,144.7756128,pharmacy,OSM-8697235138,Watergardens Town Centre,399 Melton Highway 3038,-37.7006402,144.775359,mall,OSM-33658236,2
148,Sarim's Cafe,,-37.812102094256765,144.95468371574955,restaurant,YELP-5075276324,Sarim's Cafe,,-37.812166646648574,144.95465297118216,restaurant,YELP-0595276291,1
149,Sunshine Collectibles,,-37.7779764,144.8505952,gift,OSM-6089182119,HomeCo,Braybrook,-37.7784355,144.8509618,mall,OSM-112437488,2
150,The North Face,,-37.8851410,145.0832159,clothes,OSM-975254633,Chadstone Shopping Centre,1341 Dandenong Road 3148,-37.8861084,145.082353,mall,OSM-25806278,2
151,Cycles Galleria,385 Bourke Street E14/E15 3000,-37.8150253,144.9629085,bicycle,OSM-6680175098,Owen Dixon Chambers East,205 William Street 3000,-37.8143576,144.957153,office,OSM-264277957,0
152,YASSAS THE GREEK WAY,Eastland Town Square 3134,-37.814639,145.2286658,fast_food,OSM-3813754387,YASSAS THE GREEK WAY,,-37.81401132229959,145.2287805859149,fast_food,YELP-3813754387,1
153,Manningham U3A,2/520 2/520 Blackburn Road 3109,-37.7604724,145.1692438,office,OSM-6011954357,Pines Learning & Activity Centre,520 Blackburn Road 3109,-37.7604696,145.1694083,community_centre,OSM-175839231,2
154,Pandora,,-37.7720096,144.8885474,jewelry,OSM-8551801547,Highpoint Shopping Centre,120-200 Rosamond Road 3032,-37.7732769,144.8887895,mall,OSM-29315932,2
155,Emergency Department Entrance,,-37.653542308228391,145.01524374272133,,YELP-8754964867,The Northern Hospital,185 Cooper Street 3076,-37.6531629,145.0139408,hospital,OSM-33765043,2
156,Smiggle,,-37.6987874,144.7758054,stationery,OSM-9267383839,Watergardens Town Centre,399 Melton Highway 3038,-37.7006402,144.775359,mall,OSM-33658236,2
157,Watergardens Shopping Centre/Melton Highway,,-37.6972241,144.775684,bus_stop,OSM-2932437185,Watergardens Town Centre,399 Melton Highway 3038,-37.7006402,144.775359,mall,OSM-33658236,3
158,Burhan's Espresso Bar,,-37.8319736,144.9559960,cafe,OSM-5572449355,South Melbourne Market,322-326 Coventry Street 3205,-37.8323031,144.9565361,marketplace,OSM-26104523,2
159,Commonwealth Bank,Tenancy Gs9 368 - 374 Swanston St Rmit Building 8 3000,-37.8085176883488,144.963648830694,Banks & Credit Unions,YELP-584S9JQp9X8pssn4syh181,RMIT University,124 La Trobe Street 3000,-37.8082251,144.9645927,university,OSM-616082731,2
160,Kathmandu,,-37.8140886,145.2284563,outdoor,OSM-8697022231,Waterman,171-175 Maroondah Highway 3134,-37.8139802,145.2294425,office,OSM-9345244601,0
161,Göz City,502 Little Collins Street,-37.8167561,144.9576988,restaurant,OSM-5862755217,The Great Southern Hotel,44 Spencer Street 3000,-37.8196856,144.9548897,hotel,OSM-50504748,0
162,Cotton On,,-37.6987353,144.7757905,clothes,OSM-7937383327,Watergardens Town Centre,399 Melton Highway 3038,-37.7006402,144.775359,mall,OSM-33658236,2
163,ALDI,,-37.7026836,145.1032268,supermarket,OSM-2309570308,Greensborough Plaza,25 Main Street 3088,-37.703069,145.1024656,mall,OSM-28824903,2
164,Southern Cross Coach Terminal (Bay 51),,-37.8164574,144.9525455,bus_stop,OSM-7106173457,Epic Centre,620 Bourke Street 3000,-37.8162335,144.955325,office,OSM-51710858,0
165,Rebel,,-37.70029,144.7755119,sports,OSM-8697235133,Watergardens Town Centre,399 Melton Highway 3038,-37.7006402,144.775359,mall,OSM-33658236,2
166,Priceline Pharmacy,,-37.6983856,144.7756024,pharmacy,OSM-5917235772,Watergardens Town Centre,399 Melton Highway 3038,-37.7006402,144.775359,mall,OSM-33658236,2
167,Watergardens Station/Watergardens Circuit Road (Bay 4),,-37.7008278,144.7742338,bus_stop,OSM-5618758552,Watergardens Town Centre,399 Melton Highway 3038,-37.7006402,144.775359,mall,OSM-33658236,3
168,Smiggle,,-37.6987384,144.7758464,stationery,OSM-5707383797,Watergardens Town Centre,399 Melton Highway 3038,-37.7006402,144.775359,mall,OSM-33658236,2
169,Sanity,,-38.1425287,145.1236947,hifi,OSM-1172058803,Bayside Shopping Centre,28 Beach Street,-38.1417972,145.1239964,mall,OSM-683846477,2
170,Joe's Pizza Cafe,,-37.9116855,145.1357362,fast_food,OSM-5195663699,"Monash University, Clayton Campus",151-211 Wellington Road,-37.9106345,145.1364732,university,OSM-10585250,2
171,Neptune's Sea Food Catch,,-37.9120496,145.1328193,fast_food,OSM-621555888,Hargrave-Andrew Library,13 College Walk,-37.9096726,145.1320945,library,OSM-10806323,0
172,Galerie Montmartre,187B Brunswick Street 3065,-37.801437,144.977392,art,OSM-679637966,St Vincent's Hospital,41 Victoria Parade 3065,-37.806832,144.974734,hospital,OSM-24530691,0
173,Dermal Clinics,,-38.1428611,145.1214244,healthcare,OSM-6059974386,Bayside Shopping Centre,28 Beach Street,-38.1417972,145.1239964,mall,OSM-683846477,0
174,Ritchie's IGA,,-37.79467210897847,145.2351802668148,supermarket,YELP-2488928367,Ringwood North Shopping Centre,204-206 Warrandyte Road 3134,-37.7942813,145.2359728,mall,OSM-980385416,2
175,Jasper Coffee,,-37.8859650,145.0833962,cafe,OSM-1518205255,Chadstone Shopping Centre,1341 Dandenong Road 3148,-37.8861084,145.082353,mall,OSM-25806278,2
176,Priceline Pharmacy,235 Bourke Street Bourke Street 3000,-37.8134,144.966637,pharmacy,OSM-595483769,RMIT University,124 La Trobe Street 3000,-37.8082251,144.9645927,university,OSM-616082731,0
177,7-Eleven,,-37.8119711,144.9674652,convenience,OSM-594812219,RMIT University,3010,-37.8058398,144.9652999,university,OSM-26564452,0
178,Schnitz,,-37.8125107,145.2293398,fast_food,OSM-4035634149,Eastland,175 Maroondah Highway 3134,-37.813042,145.2291281,mall,OSM-980791081,2
179,Courtyard,,-37.8460212,145.0540626,cafe,OSM-4308263759,Epworth Camberwell,888 Toorak Road 3214,-37.8462394,145.0544834,hospital,OSM-1031857292,2
180,Y Axis Immigration & Visas,,-37.8096282,144.9612621,office,OSM-3841975857,RMIT University,124 La Trobe Street 3000,-37.8082251,144.9645927,university,OSM-616082731,0
181,Flight Centre,,-37.816012,144.957644,travel_agency,OSM-3815018358,Epic Centre,620 Bourke Street 3000,-37.8162335,144.955325,office,OSM-51710858,0
182,Rebel,,-37.8137479,145.228128,sports,OSM-7707022261,Eastland,175 Maroondah Highway 3134,-37.813042,145.2291281,mall,OSM-980791081,2
183,Soirée by Little Flower Box,,-37.8140263,145.2287260,florist,OSM-3213754189,Eastland,175 Maroondah Highway 3134,-37.813042,145.2291281,mall,OSM-980791081,2
184,Goodlife Health Clubs,171-175 Maroondah Highway 3134,-37.8146629,145.2292306,leisure,OSM-9345227128,Eastland,175 Maroondah Highway 3134,-37.813042,145.2291281,mall,OSM-980791081,2
185,South Yarra Post Office,,-37.838828,144.9896647,post_office,OSM-344096663,South Yarra Arcade,101 Toorak Road 3141,-37.8384728,144.9899238,mall,OSM-336995337,3
186,Aussie Home Loans,171-175 Maroondah Highway 3134,-37.8146430,145.2275368,office,OSM-6785244241,Eastland,175 Maroondah Highway 3134,-37.813042,145.2291281,mall,OSM-980791081,2
187,Smart Electrical Outlet,,-37.7821333,144.8315241,electronics,OSM-5824769841,Brimbank Community and Civic Centre,301 Hampshire Road 3020,-37.7831654,144.8320592,townhall,OSM-616285439,0
188,Cellar Door,3649 Frankston - Flinders Road 3916,-38.4059458,145.0747251,wine,OSM-0158062990,Pt. Leo Estate,3649 Frankston - Flinders Road 3916,-38.4060545,145.0745223,craft,OSM-842304810,2
189,Watergardens Station/Watergardens Circuit Road (Bay 2),,-37.7010877,144.7744366,bus_stop,OSM-5618758549,Watergardens Town Centre,399 Melton Highway 3038,-37.7006402,144.775359,mall,OSM-33658236,3
190,Bevmarks Sleep Proffesionals,,-37.766063440110976,145.3060699624034,furniture,YELP-9345087856,Bevmarks Sleep Proffesionals,,-37.766039161646139,145.3060193889798,furniture,YELP-7885087805,1
191,U3A Ringwood,,-37.783618486261446,145.2420182478414,office,YELP-8649194517,Ringwood Men's Shed,,-37.78385526287351,145.2426041096364,,YELP-9417023526,0
192,Northland Shopping Centre (Bay 4),,-37.7402987,145.0280749,bus_stop,OSM-3669971121,Northland Shopping Centre,2-50 Murray Road 3072,-37.73846,145.0299923,mall,OSM-434341796,3
193,RMIT City Campus Children's Centre,,-37.8064173,144.9657385,university,OSM-7228317548,UniLodge on Campus,,-37.8061277,144.9654394,hostel,OSM-7228362161,0
194,Meeting Point,,-37.9117409,145.1328131,cafe,OSM-113555182,"Monash University, Clayton Campus",151-211 Wellington Road,-37.9106345,145.1364732,university,OSM-10585250,2
195,Aruba Espresso,,-37.794022,144.949497,cafe,OSM-2130206748,Royal Children's Hospital,50 Flemington Road,-37.7934267,144.9499297,hospital,OSM-25583774,2
196,Noodle Noodle,,-37.9116011,145.1331738,fast_food,OSM-2824869150,"Monash University, Clayton Campus",151-211 Wellington Road,-37.9106345,145.1364732,university,OSM-10585250,2
197,Chadstone Shopping Centre (Bay 3) ,,-37.8880912,145.0834042,bus_stop,OSM-4500025085,Chadstone Shopping Centre,1341 Dandenong Road 3148,-37.8861084,145.082353,mall,OSM-25806278,3
198,Alcohol Market,,-37.8148813,144.9519405,alcohol,OSM-7553078586,William Angliss Institute,555 La Trobe Street 3000,-37.8132797,144.9530117,college,OSM-191523966,0
199,Speck,,-37.8133966,144.9597518,cafe,OSM-1282403409,RMIT University,124 La Trobe Street 3000,-37.8082251,144.9645927,university,OSM-616082731,0
200,Joe's Pizza Cafe,,-37.9116307,145.1357287,fast_food,OSM-4465663649,Cafe Nesso,,-37.9138418,145.1328837,cafe,OSM-5680708788,0
201,Expo Centric Pty Ltd - Melbourne,440 Collins Street Level 9 3000,-37.8170528,144.9597829,office,OSM-7121788915,Batman’s Hill on Collins,623 Collins Street 3000,-37.8192061,144.9546639,hotel,OSM-14664549,0
202,Hooked on Fish,,-37.79405461504638,145.23679348439819,fast_food,YELP-4649496370,Ringwood North Shopping Centre,204-206 Warrandyte Road 3134,-37.7942813,145.2359728,mall,OSM-980385416,2
203,Little Chef,,-37.8107357,144.9573179,restaurant,OSM-2530237186,Owen Dixon Chambers West,525 Lonsdale Street 3000,-37.8142242,144.9566218,office,OSM-49961338,0
204,Famous Hot Pot,,-37.811548,144.968192,restaurant,OSM-3644320993,State Library of Victoria,328 Swanston Street 3000,-37.8097018,144.965488,library,OSM-22820458,0
205,Lentil as Anything,1-3 St Heliers Street 3067,-37.8027254,145.0035477,restaurant,OSM-4698382735,Abbotsford Convent,1 St Heliers Street 3067,-37.8030061,145.0037542,attraction,OSM-666244249,2
206,Chanel,,-37.8867474,145.080859,clothes,OSM-8551749052,Chadstone Shopping Centre,1341 Dandenong Road 3148,-37.8861084,145.082353,mall,OSM-25806278,2
207,Octane Espresso Bar,350 Bourke Street 3000,-37.8132592,144.9582051,cafe,OSM-1292397875,Owen Dixon Chambers West,525 Lonsdale Street 3000,-37.8142242,144.9566218,office,OSM-49961338,0
208,Chaf's Cafe,669-671 Bourke Street 3000,-37.8170742,144.9540347,cafe,OSM-622821208,The Great Southern Hotel,44 Spencer Street 3000,-37.8196856,144.9548897,hotel,OSM-50504748,0
209,The Reject Shop,,-37.8128274,145.2298593,variety_store,OSM-6127022000,Eastland,175 Maroondah Highway 3134,-37.813042,145.2291281,mall,OSM-980791081,2
210,JD Sports,,-38.1422974,145.1241468,sports,OSM-8552367407,JD Sports,,-38.1422596,145.1241675,sports,OSM-2832367417,1
211,Elephant & Wheelbarrow,94-96 Bourke Street 3000,-37.811917,144.970217,pub,OSM-595792884,RMIT University,3010,-37.8058398,144.9652999,university,OSM-26564452,0
212,PanelPop,117 Brunswick Street 3065,-37.80399,144.9773113,art,OSM-835996430,Melbourne Museum,11 Nicholson Street 3053,-37.80326,144.9716664,museum,OSM-4817074,0
213,Kmart,,-37.7719632,144.8904922,department_store,OSM-9596028325,Highpoint Shopping Centre,120-200 Rosamond Road 3032,-37.7732769,144.8887895,mall,OSM-29315932,2
214,Commonwealth Bank,221 William Street 3000,-37.814212,144.957215,bank,OSM-767832835,Owen Dixon Chambers East,205 William Street 3000,-37.8143576,144.957153,office,OSM-264277957,2
215,Northland Shopping Centre (Bay 1) ,,-37.7404550,145.0287805,bus_stop,OSM-5528252580,Northland Shopping Centre,2-50 Murray Road 3072,-37.73846,145.0299923,mall,OSM-434341796,3
216,TK Maxx,,-38.1427695,145.123193,department_store,OSM-2843192453,TK Maxx,,-38.1427474,145.123135,department_store,OSM-8683192044,1
217,Knox City Shopping Centre (Bay 8) ,,-37.8694747,145.2387901,bus_stop,OSM-601096511,Westfield Knox Shopping Centre,425 Burwood Highway 3152,-37.8689832,145.2414832,mall,OSM-24026232,3
218,Northland Shopping Centre (Bay 4) ,,-37.7402878,145.0280278,bus_stop,OSM-3963729458,Northland Shopping Centre,2-50 Murray Road 3072,-37.73846,145.0299923,mall,OSM-434341796,3
219,Three Red Stripes,,-37.7608239,145.1691058,restaurant,OSM-6643448357,The Pines Shopping Centre,181 Reynolds Road 3109,-37.7618221,145.1688329,mall,OSM-194057248,2
220,Noodle Noodle,,-37.9116743,145.1331554,fast_food,OSM-4334869026,"Monash University, Clayton Campus",151-211 Wellington Road,-37.9106345,145.1364732,university,OSM-10585250,2
221,Private Consulting Rooms,,-37.79443912076287,144.94991139339777,doctors,YELP-4365827751,Private Consulting Rooms,48 Flemington Road,-37.7945021,144.9496536,doctors,OSM-4365827751,1
222,Madras Banyan Tree,,-37.81597218246293,144.9554171677068,restaurant,YELP-660027524,Owen Dixon Chambers West,525 Lonsdale Street 3000,-37.8142242,144.9566218,office,OSM-49961338,0
223,Ferntree Gully History,,-37.882701,145.2953712,historic,OSM-9427787379,Village Court,101 Station Street 3156,-37.8826049,145.2944984,mall,OSM-1027660472,0
224,The Sporting Globe,Watergardens Town Centre 3038,-37.699976,144.7746,Sports Bars; Australian,YELP-3ZPuPUT0ouYVRt9KEPos1A,Watergardens Town Centre,399 Melton Highway 3038,-37.7006402,144.775359,mall,OSM-33658236,2
225,Uniqlo,,-37.7729944,144.8900905,clothes,OSM-8551801543,Highpoint Shopping Centre,120-200 Rosamond Road 3032,-37.7732769,144.8887895,mall,OSM-29315932,2
226,Taste Baguette,,-37.9127763,145.1326819,cafe,OSM-3967392075,"Monash University, Clayton Campus",151-211 Wellington Road,-37.9106345,145.1364732,university,OSM-10585250,2
227,Parkiteer,,-37.8321438,144.6960564,bicycle_parking,OSM-6177546048,Tarneit Community Learning Centre,150 Sunset Views Boulevard 3029,-37.8354735,144.6960699,community_centre,OSM-381420680,0
228,Exhibition Building/Rathdowne Street,,-37.8047785,144.969103,bus_stop,OSM-7248901076,St Vincent's Hospital,41 Victoria Parade 3065,-37.806832,144.974734,hospital,OSM-24530691,0
229,Target,,-37.7563914,145.3131355,department_store,OSM-2177939908,Chirnside Park Shopping Centre,239-241 Maroondah Highway 3116,-37.7582999,145.312862,mall,OSM-111978002,2
230,Commonwealth Bank,8 Swanston Street,-37.8086065,144.9637089,bank,OSM-291209939,Commonwealth Bank,Tenancy Gs9 368 - 374 Swanston St Rmit Building 8 3000,-37.8085876287234,144.963646729205,Banks & Credit Unions,YELP-KuGS9JQp9X8pssn4syhEPQ,1
231,Jane&Co Cafe,616 Glenferrie Road,-37.823435,145.0353160,cafe,OSM-0262706362,Quest,616 Glenferrie Road 3122,-37.8234669,145.0356757,hotel,OSM-863435170,2
232,Script @ Jazz Club,,-37.9131416,145.1336302,cafe,OSM-6544786405,"Monash University, Clayton Campus",151-211 Wellington Road,-37.9106345,145.1364732,university,OSM-10585250,2
233,Nespresso,,-37.886210,145.082417,Coffee & Tea; Restaurants,YELP-875I85GYXEyK4GyhzVk094,Chadstone Shopping Centre,1341 Dandenong Road 3148,-37.8861084,145.082353,mall,OSM-25806278,2
234,Bunjil,,-37.8207663,144.9522788,artwork,OSM-8963689206,The Great Southern Hotel,44 Spencer Street 3000,-37.8196856,144.9548897,hotel,OSM-50504748,0
235,Law Library,,-37.913034,145.1319489,library,OSM-1924607336,"Monash University, Clayton Campus",151-211 Wellington Road,-37.9106345,145.1364732,university,OSM-10585250,2
236,Fruits On Coventry,,-37.8326262,144.9569204,greengrocer,OSM-6642393692,Rod’s Fruit & Vegetables,,-37.8327321,144.9565423,greengrocer,OSM-6642422176,0
237,Madras Banyan Tree,169 King Street 3000,-37.816145,144.955311,restaurant,OSM-863027454,Epic Centre,620 Bourke Street 3000,-37.8162335,144.955325,office,OSM-51710858,2
238,Fabric,16 Kavanagh Street 3066,-37.8227646,144.9663442,cafe,OSM-1350264398,Baxter Institute (Automotive and Bakery Campus),93 Queens Bridge Street 3006,-37.8241579,144.960947,college,OSM-154296996,0
239,Commonwealth Bank,221 William Street 3000,-37.814259,144.957292,bank,OSM-633832606,Commonwealth Bank,,-37.814297,144.957205,bank,OSM-655832693,1
240,Rebel,,-37.70028,144.7755134,sports,OSM-7477235561,Watergardens Town Centre,399 Melton Highway 3038,-37.7006402,144.775359,mall,OSM-33658236,2
241,Elite Real Estate,T4/200 Spencer Street 3000,-37.8162944,144.9530773,office,OSM-3012090067,Batman’s Hill on Collins,623 Collins Street 3000,-37.8192061,144.9546639,hotel,OSM-14664549,0
242,Consulate General of the United States,553 St Kilda Road 3004,-37.8469314,144.9800899,office,OSM-2105067353,Mantra St Kilda Road,568 St Kilda Road 3004,-37.8471567,144.9786759,hotel,OSM-270556997,0
243,Chadstone Shopping Centre (Bay 5) ,,-37.8882688,145.0836975,bus_stop,OSM-8854811863,Chadstone Shopping Centre,1341 Dandenong Road 3148,-37.8861084,145.082353,mall,OSM-25806278,3
244,Hoyts,,-37.81284944086356,145.23050619571598,cinema,YELP-595868477,Hoyts,,-37.81285867949443,145.23056992003758,cinema,YELP-810868171,1
245,Hunter & Barrel,171-175 Maroondah Highway 3134,-37.814485,145.2291767,restaurant,OSM-3813754395,Eastland,175 Maroondah Highway 3134,-37.813042,145.2291281,mall,OSM-980791081,2
246,Watergardens Station/Watergardens Circuit Road (Bay 1),,-37.7011915,144.7745176,bus_stop,OSM-5618758548,Watergardens Town Centre,399 Melton Highway 3038,-37.7006402,144.775359,mall,OSM-33658236,3
247,Equilibrium Fitness,23 Errol Street 3051,-37.804461,144.9491602,leisure,OSM-4733654588,Miami Hotel Melbourne,13 Hawke Street 3003,-37.8061193,144.9485155,hotel,OSM-314945360,0
248,Naneez Sock Shop,,-37.8325817,144.9565181,clothes,OSM-7684173826,Naneez Sock Shop,,-37.8325369,144.9565586,clothes,OSM-0954173360,1
249,McDonald's,,-37.8849685,145.083639,fast_food,OSM-023253649,Chadstone Shopping Centre,1341 Dandenong Road 3148,-37.8861084,145.082353,mall,OSM-25806278,2
250,Subway,177 King Street 3000,-37.8160127,144.9553396,fast_food,OSM-660024093,The Great Southern Hotel,44 Spencer Street 3000,-37.8196856,144.9548897,hotel,OSM-50504748,0
251,Watergardens Station/Watergardens Circuit Road (Bay 3) ,,-37.7009272,144.7743548,bus_stop,OSM-1399922150,Watergardens Town Centre,399 Melton Highway 3038,-37.7006402,144.775359,mall,OSM-33658236,3
252,Readings,State Library of Victoria Swanson Street,-37.8097181,144.9645886,books,OSM-5406503614,Readings,,-37.8094429,144.9663317,books,OSM-6237887803,0
253,Best & Less,,-37.8132558,145.2281559,clothes,OSM-8697022229,Boost Juice,,-37.8124089,145.2295315,cafe,OSM-9072741865,0
254,Lavezzi Gelateria,171-175 Maroondah Highway 3134,-37.8142482,145.229175,ice_cream,OSM-3813754397,Lavezzi Gelateria,,-37.81349850876284,145.2291445381907,ice_cream,YELP-3813754397,1
255,Orient East,348 St Kilda Rd 3004,-37.831003,144.970887,Restaurants,YELP-SbQT4JLldd6NfEOKOK_vwA,Seasons Botanic Gardens Melbourne,348 St Kilda Road 3004,-37.8309857,144.9704022,hotel,OSM-220687203,2
256,Number 8,,-37.8222909,144.9592474,restaurant,OSM-2421608396,Boyd Community Hub,207-229 City Road 3006,-37.8256253,144.9611059,public_building,OSM-225370260,0
257,NAB,,-37.7598214,145.3489569,bank,OSM-336368544,Lilydale Village,51-59 Anderson Street 3140,-37.7564564,145.3541724,mall,OSM-205419047,0
258,Tip Top Butchers,2/266 Bolton Street 3095,-37.7205919,145.1378733,supermarket,OSM-1876465713,Eltham Ridge Medical Centre,284 Bolton Street 3095,-37.7198918,145.1379054,doctors,OSM-177189832,0
259,EnTHAIced,,-37.75696251425445,145.3533036859797,restaurant,YELP-8613799499,EnTHAIced,20-22 Castella Street 3140,-37.7562143,145.3538693,restaurant,OSM-8613799499,1
260,Eastland SC/Warrandyte Rd,,-37.8124647,145.2306417,bus_stop,OSM-9046908006,Eastland,175 Maroondah Highway 3134,-37.813042,145.2291281,mall,OSM-980791081,3
261,EB Games,,-37.81445107588279,145.2284256331921,video_games,YELP-9484972952,EB Games,3134,-37.8137264,145.2284459,video_games,OSM-9484972952,1
262,Yamato 2,223 Exhibition Street,-37.8106902,144.9696748,restaurant,OSM-726967743,RMIT University,3010,-37.8058398,144.9652999,university,OSM-26564452,0
263,Martin York,,-37.8141063,145.2290110,clothes,OSM-7063754595,Eastland,175 Maroondah Highway 3134,-37.813042,145.2291281,mall,OSM-980791081,2
264,Nespresso,1341 Dandenong Rd Level 1 3148,-37.886288,145.082468,Coffee & Tea; Restaurants,YELP-jcuI85GYXEyK4GyhzVk0NQ,Chadstone Shopping Centre,1341 Dandenong Road 3148,-37.8861084,145.082353,mall,OSM-25806278,2
265,Uniqlo,,-37.8141921,145.2282964,clothes,OSM-5506999532,Eastland,175 Maroondah Highway 3134,-37.813042,145.2291281,mall,OSM-980791081,2
266,The Reject Shop,,-37.7018396,144.7761633,variety_store,OSM-4817235465,Watergardens Town Centre,399 Melton Highway 3038,-37.7006402,144.775359,mall,OSM-33658236,2
267,7-Eleven,,-37.8019136,144.9665245,convenience,OSM-472236183,RMIT University,124 La Trobe Street 3000,-37.8082251,144.9645927,university,OSM-616082731,0
268,BelleBika,330 Clarendon Street,-37.8343393,144.960977,clothes,OSM-584404567,South Melbourne Market,322-326 Coventry Street 3205,-37.8323031,144.9565361,marketplace,OSM-26104523,0
269,Cellar Door,,-38.40618951401756,145.0752708741462,wine,YELP-7408062552,Pt. Leo Estate,3649 Frankston - Flinders Road 3916,-38.4060545,145.0745223,craft,OSM-842304810,2
270,IGA,3088,-37.6875252,145.1082985,supermarket,OSM-3770369946,Apollo Parkways Shopping Centre,Civic Drive,-37.6877555,145.1082048,mall,OSM-288147900,2
271,Neptune's Sea Food Catch,,-37.9120496,145.1328193,fast_food,OSM-621555888,"Monash University, Clayton Campus",151-211 Wellington Road,-37.9106345,145.1364732,university,OSM-10585250,2
272,Monash Eyecare,,-37.9115865,145.1326612,optician,OSM-3416932972,John Monash Science School,,-37.9140244,145.1291121,college,OSM-6375609985,0
273,TAB,243-247 Lygon Street 3053,-37.7997065,144.9669046,bookmaker,OSM-678361122,Melbourne Museum,11 Nicholson Street 3053,-37.80326,144.9716664,museum,OSM-4817074,0
274,EB Games,3134,-37.8137012,145.2284549,video_games,OSM-4424972130,Eastland,175 Maroondah Highway 3134,-37.813042,145.2291281,mall,OSM-980791081,2
275,Medical For Everybody,282 Maroondah Highway 3116,-37.7670343,145.305816,clinic,OSM-9345087851,Chirnside Homemaker Centre,282 Maroondah Highway 3116,-37.7663845,145.3058855,mall,OSM-207536171,2
276,Typo,,-37.6988855,144.7761309,stationery,OSM-9267383844,Watergardens Town Centre,399 Melton Highway 3038,-37.7006402,144.775359,mall,OSM-33658236,2
277,Europcar,85 Franklin Street 3000,-37.8080528,144.961578,car_rental,OSM-3822160724,State Library of Victoria,328 Swanston Street 3000,-37.8097018,144.965488,library,OSM-22820458,0
278,Julia Gillard Library,150 Sunset Views Boulevard 3029,-37.8356476,144.6962131,library,OSM-3844114444,Julia Gillard Library,,-37.8356948,144.6962648,library,OSM-2454114592,1
279,Kmart,Chadstone Shopping Centre 3145,-37.886116,145.082724,Department Stores,YELP-_1WBaOeMf3IjTMNiLvm3yA,Kmart,,-37.886159,145.082701,Department Stores,YELP-754BaOeMf3IjTMNiLvm622,1
280,Cheng's Travel,,-37.9505159,145.1507899,travel_agency,OSM-7772564254,Springvale Shopping Centre,46-58 Buckingham Avenue,-37.950335,145.1506972,mall,OSM-221010715,2
281,St Heliers Street Gallery,,-37.8025808,145.0031398,gallery,OSM-6097151168,Abbotsford Convent,1 St Heliers Street 3067,-37.8030061,145.0037542,attraction,OSM-666244249,2
282,Watergardens Shopping Centre/Watergardens Circuit Road,,-37.6969648,144.7739273,bus_stop,OSM-5618828837,Watergardens Town Centre,399 Melton Highway 3038,-37.7006402,144.775359,mall,OSM-33658236,3
283,Lucky Little Dumplings,,-37.7368467,144.9687674,restaurant,OSM-8931821872,Former Pentridge Prison Site,Champ Street 3058,-37.7362136,144.9687891,historic,OSM-290084770,2
284,South Melbourne Market ,,-37.832371,144.9575281,bus_stop,OSM-6118331031,South Melbourne Market,322-326 Coventry Street 3205,-37.8323031,144.9565361,marketplace,OSM-26104523,3
285,Connor,,-37.6985934,144.7757294,clothes,OSM-9267383836,Cotton On,,-37.6987162,144.7757761,clothes,OSM-9267383838,0
286,Medical For Everybody,282 Maroondah Highway 3116,-37.7670718,145.305807,clinic,OSM-7435087590,Chirnside Homemaker Centre,282 Maroondah Highway 3116,-37.7663845,145.3058855,mall,OSM-207536171,2
287,Target,,-37.7563017,145.3131728,department_store,OSM-9197939619,Chirnside Park Shopping Centre,239-241 Maroondah Highway 3116,-37.7582999,145.312862,mall,OSM-111978002,2
288,Mr Tulk,,-37.8095374,144.9646458,cafe,OSM-9867579773,State Library of Victoria,328 Swanston Street 3000,-37.8097018,144.965488,library,OSM-22820458,2
289,RMIT Bicycle Parking ,,-37.8067328,144.9646867,bicycle_parking,OSM-195219424,RMIT University,124 La Trobe Street 3000,-37.8082251,144.9645927,university,OSM-616082731,3
290,Malaysian Garden Restaurant,,-37.92413279919351,145.11894718438984,restaurant,YELP-4066415570,The Clayton Hotel,319 Clayton Road,-37.9243472,145.1195608,hotel,OSM-542404461,2
291,Shop Around The Corner,,-38.1440834,145.1249568,gift,OSM-6059973170,Bayside Shopping Centre,28 Beach Street,-38.1400526,145.1254513,mall,OSM-845391428,0
292,Station Street Green Co,101 Station Street 13 3156,-37.8823113,145.2946777,cafe,OSM-4836178255,Village Court,101 Station Street 3156,-37.8826049,145.2944984,mall,OSM-1027660472,2
293,Dingo2,,-37.6832935,145.5306648,viewpoint,OSM-9863581772,Healesville Sanctuary,Badger Creek Road 3777,-37.6842773,145.5313403,zoo,OSM-24386390,2
294,Hardrock,501 Swanston Street 3000,-37.807364,144.9624993,leisure,OSM-3388467782,RMIT University,3010,-37.8058398,144.9652999,university,OSM-26564452,0
295,Martin York,,-37.8141469,145.2290986,clothes,OSM-3693754428,Eastland,175 Maroondah Highway 3134,-37.813042,145.2291281,mall,OSM-980791081,2
296,McDonald's,,-37.794060,144.949578,fast_food,OSM-0860203590,Royal Children's Hospital,50 Flemington Road,-37.7934267,144.9499297,hospital,OSM-25583774,2
297,Pelican Childcare,,-37.7357373,144.9732473,kindergarten,OSM-2958472405,Former Pentridge Prison Site,Champ Street 3058,-37.7362136,144.9687891,historic,OSM-290084770,0
298,John Curtin Hotel,29 Lygon St 3053,-37.8062,144.965856,Bars; Music Venues; Restaurants,YELP-f6higk13BeBR0dSNhaqQLw,John Curtin Hotel,,-37.8062,144.965804,Bars; Music Venues; Restaurants,YELP-680igk13BeBR0dSNhaq825,1
299,RMIT Building 56,,-37.8051408,144.9659401,university,OSM-7228317551,RMIT Building 56,,-37.8051932,144.9659975,university,OSM-7558317656,1
300,Urban hub,,-37.8251066,144.9508213,convenience,OSM-4442505491,Crown Entertainment Complex,8 Whiteman Street 3006,-37.8233312,144.958697,casino,OSM-13306836,0
301,MPavillion,,-37.8218246,144.9704857,artwork,OSM-7217587435,ABC Southbank Centre,120 Southbank Boulevard 3006,-37.8239868,144.9665183,studio,OSM-71188951,0
302,The Atlantic,,-37.8224459,144.9589783,restaurant,OSM-8941608330,Crown Entertainment Complex,8 Whiteman Street 3006,-37.8233312,144.958697,casino,OSM-13306836,2
303,Miss Libertine,34 Franklin Street,-37.807643,144.961749,bar,OSM-968356091,RMIT University,3010,-37.8058398,144.9652999,university,OSM-26564452,0
304,Suburban Dining + Rooftop,,-37.81427560401909,145.22774899328564,restaurant,YELP-3813754398,Eastland,175 Maroondah Highway 3134,-37.813042,145.2291281,mall,OSM-980791081,2
305,Sonex,324 King Street,-37.8126448,144.9542217,restaurant,OSM-3442391203,Owen Dixon Chambers East,205 William Street 3000,-37.8143576,144.957153,office,OSM-264277957,0
306,Westpac,Wells Street,-38.1433196,145.1232064,bank,OSM-415515181,Bayside Shopping Centre,28 Beach Street,-38.1400526,145.1254513,mall,OSM-845391428,0
307,Chadstone Rd/Princes Hwy ,,-37.8867410,145.0776951,bus_stop,OSM-0964040194,Chadstone Shopping Centre,1341 Dandenong Road 3148,-37.8861084,145.082353,mall,OSM-25806278,3
308,Schnitz,,-37.8125107,145.2293398,fast_food,OSM-4035634149,Schnitz,,-37.8125941,145.2293400,fast_food,OSM-8665634950,1
309,Knox City Shopping Centre (Bay 4) ,,-37.8693229,145.2382986,bus_stop,OSM-567265577,Westfield Knox Shopping Centre,425 Burwood Highway 3152,-37.8689832,145.2414832,mall,OSM-24026232,3
310,ANM Steel Furniture,,-37.810517,145.001407,furniture,OSM-2982192533,The Hive,313-325 Victoria Street 3067,-37.8097238,144.9955377,mall,OSM-69963105,0
311,Pearson & Murphy's,124 La Trobe Street 3000,-37.808916,144.965260,Restaurants; Coffee & Tea,YELP-606BV8ZJHtJW6gClk03007,RMIT University,124 La Trobe Street 3000,-37.8082251,144.9645927,university,OSM-616082731,2
312,Max Therapy,,-37.8361685,145.1652063,massage,OSM-0270457588,Forest Hill Chase Shopping Centre,270 Canterbury Road,-37.8355701,145.1648481,mall,OSM-24039664,2
313,Pondok Rempah,,-37.8075962,144.9598739,restaurant,OSM-4378845089,RMIT University,3010,-37.8058398,144.9652999,university,OSM-26564452,0
314,Dingo2,,-37.6832361,145.5306778,viewpoint,OSM-3593581137,Healesville Sanctuary,Badger Creek Road 3777,-37.6842773,145.5313403,zoo,OSM-24386390,2
315,La Calline,,-37.8451846,144.9799686,cafe,OSM-9232823279,Alfred Hospital,55 Commercial Road,-37.8461529,144.9825892,hospital,OSM-265910010,0
316,Woolworths Metro,,-37.8159063,144.9560406,supermarket,OSM-5637523521,Batman’s Hill on Collins,623 Collins Street 3000,-37.8192061,144.9546639,hotel,OSM-14664549,0
317,Suburban Dining + Rooftop,Eastland Town Square R10 3134,-37.8142848,145.2283102,restaurant,OSM-2743754019,Eastland,175 Maroondah Highway 3134,-37.813042,145.2291281,mall,OSM-980791081,2
318,Shanghai Club,242 Little Bourke Street 3000,-37.8122542,144.9656641,bar,OSM-600777872,State Library of Victoria,328 Swanston Street 3000,-37.8097018,144.965488,library,OSM-22820458,0
319,Clark Rubber - Chirnside Park,,-37.76786471912437,145.30630537514403,swimming_pool,YELP-9345080347,Clark Rubber - Chirnside Park,282 Maroondah Highway 3116,-37.7673032,145.3055605,swimming_pool,OSM-9345080347,1
320,IGA,,-37.68701505579456,145.10753430273049,supermarket,YELP-2110369060,Apollo Parkways Shopping Centre,Civic Drive,-37.6877555,145.1082048,mall,OSM-288147900,2
321,Priceline,,-37.8126068,144.9710457,pharmacy,OSM-4788724029,Ian Potter Centre: NGV Australia,Federation Square 3000,-37.8175394,144.9699711,museum,OSM-22963243,0
322,Oakleigh Station ,,-37.8998245,145.0883942,bus_stop,OSM-339933079,Oakleigh Market,12 Chester Street,-37.8997252,145.0892318,marketplace,OSM-168808800,3
323,Lavezzi Gelateria,,-37.81347359844003,145.2291594563315,ice_cream,YELP-1863754868,Eastland,175 Maroondah Highway 3134,-37.813042,145.2291281,mall,OSM-980791081,2
324,Embla,122 Russell Street 3000,-37.8134701,144.9686023,bar,OSM-9454586655,Hotel Ovolo,19 Little Bourke Street 3000,-37.8107508,144.9719983,hotel,OSM-225419339,0
325,Soul Pattinson Chemist,473 Bourke Street 3000,-37.8154,144.959895,pharmacy,OSM-611561165,Owen Dixon Chambers West,525 Lonsdale Street 3000,-37.8142242,144.9566218,office,OSM-49961338,0
326,Bubble Cup Fresh,,-37.69970505468032,144.77808915574781,fast_food,YELP-5911569838,Watergardens Town Centre,399 Melton Highway 3038,-37.7006402,144.775359,mall,OSM-33658236,2
327,Westpac,,-37.81172784618694,145.2281427160519,bank,YELP-6319810338,Eastland,175 Maroondah Highway 3134,-37.813042,145.2291281,mall,OSM-980791081,2
328,Lux Hair,,-37.7369787,144.9690528,hairdresser,OSM-9671821957,Former Pentridge Prison Site,Champ Street 3058,-37.7362136,144.9687891,historic,OSM-290084770,2
329,Northland Shopping Centre (Bay 3),,-37.7404128,145.0283217,bus_stop,OSM-3669971120,Northland Shopping Centre,2-50 Murray Road 3072,-37.73846,145.0299923,mall,OSM-434341796,3
330,Boroondara Youth Hub,360 Burwood Road 3122,-37.8232248,145.0357549,community_centre,OSM-3837155757,Creative Cubes Co.,10 Oxley Road 3122,-37.8245012,145.0363061,office,OSM-863646732,0
331,Tam tam restaurant,1 Lygon Street 3053,-37.80679,144.965667,restaurant,OSM-477075427,RMIT University,3010,-37.8058398,144.9652999,university,OSM-26564452,0
332,Altius Coffee Brewers,,-37.819714,144.9564536,cafe,OSM-3511713299,The Great Southern Hotel,44 Spencer Street 3000,-37.8196856,144.9548897,hotel,OSM-50504748,0
333,Pandora,,-37.8121902,144.9636655,jewelry,OSM-8639128992,RMIT University,124 La Trobe Street 3000,-37.8082251,144.9645927,university,OSM-616082731,0
334,Da Guido La Pasta,130 Lygon Street 3053,-37.8040591,144.9665336,restaurant,OSM-4795875806,RMIT University,124 La Trobe Street 3000,-37.8082251,144.9645927,university,OSM-616082731,0
335,Chadstone Shopping Centre (Bay 5),,-37.8882069,145.0836283,bus_stop,OSM-5746514864,Chadstone Shopping Centre,1341 Dandenong Road 3148,-37.8861084,145.082353,mall,OSM-25806278,3
336,Goodlife,,-37.83797,145.1327587,leisure,OSM-6042789999,HomeCo,Box Hill,-37.83779,145.1335468,mall,OSM-128776373,2
337,Station Street Green Co,,-37.88199804236925,145.29462885052902,cafe,YELP-9446178375,Village Court,101 Station Street 3156,-37.8826049,145.2944984,mall,OSM-1027660472,2
338,Soap Bar Launderette,174 Bridge Road 3121,-37.8183488,144.9963718,laundry,OSM-8813186674,Epworth Richmond Hospital,89 Bridge Road,-37.8171882,144.9931287,hospital,OSM-29548387,0
339,ALDI,,-37.809602,144.9954593,supermarket,OSM-835998619,The Hive,313-325 Victoria Street 3067,-37.8097238,144.9955377,mall,OSM-69963105,2
340,The Handbag Salon,162 Collins Street 3000,-37.8144909,144.967849,gift,OSM-4623096990,Ian Potter Centre: NGV Australia,Federation Square 3000,-37.8175394,144.9699711,museum,OSM-22963243,0
341,Witchery,,-38.1410658,145.1243519,clothes,OSM-4729606555,Bayside Shopping Centre,28 Beach Street,-38.1417972,145.1239964,mall,OSM-683846477,2
342,Joe's Pizza Cafe,,-37.9116307,145.1357287,fast_food,OSM-4465663649,"Monash University, Clayton Campus",151-211 Wellington Road,-37.9106345,145.1364732,university,OSM-10585250,2
343,Southern Cross Coach Terminal (Bay 69),,-37.8153866,144.9521515,bus_stop,OSM-7244246416,Batman’s Hill on Collins,623 Collins Street 3000,-37.8192061,144.9546639,hotel,OSM-14664549,0
344,Cafe Euro,488 Bourke Street 3000,-37.8152176,144.9590837,cafe,OSM-4271393509,Owen Dixon Chambers East,205 William Street 3000,-37.8143576,144.957153,office,OSM-264277957,0
345,Chevapi Grill,283 Clarendon Street 3205,-37.8332497,144.9609239,restaurant,OSM-1815565235,South Melbourne Market,322-326 Coventry Street 3205,-37.8323031,144.9565361,marketplace,OSM-26104523,0
346,Julia Gillard Library,,-37.8359609687054,144.6966840849262,library,YELP-4814114666,Tarneit Community Learning Centre,150 Sunset Views Boulevard 3029,-37.8354735,144.6960699,community_centre,OSM-381420680,2
347,Ookii Sushi,,-37.7269431,144.895416,restaurant,OSM-0381941296,Essendon Fields Central,30 English Street 3041,-37.7272529,144.8956144,mall,OSM-50103389,2
348,LouLou,,-37.8695983,145.244123,bar,OSM-395212046,Westfield Knox Shopping Centre,425 Burwood Highway 3152,-37.8689832,145.2414832,mall,OSM-24026232,2
349,Caltex,239-241 Maroondah Highway 3116,-37.7588425,145.3110373,fuel,OSM-9359844849,Caltex,,-37.759091804919365,145.310986628134,fuel,YELP-9359844849,1
350,Robinsons,,-37.8141056,145.2289902,books,OSM-3813760175,Eastland,175 Maroondah Highway 3134,-37.813042,145.2291281,mall,OSM-980791081,2
351,Ol' Mate Coffee,465 Nepean Highway,-38.1440052,145.1210104,cafe,OSM-7805689487,Bayside Shopping Centre,28 Beach Street,-38.1400526,145.1254513,mall,OSM-845391428,0
352,Hoyts,,-37.8350641,145.1654097,cinema,OSM-6107970510,Forest Hill Chase Shopping Centre,270 Canterbury Road,-37.8355701,145.1648481,mall,OSM-24039664,2
353,Bennetts Lane Jazz Club,,-37.8089838,144.9676407,nightclub,OSM-247010552,RMIT University,3010,-37.8058398,144.9652999,university,OSM-26564452,0
354,Clarinda Library,,-37.9402424,145.1022881,library,OSM-6420544242,Clarinda Community Centre,58 Viney Street 3169,-37.9404235,145.1022194,community_centre,OSM-56753242,2
355,Repair,,-37.9517114,145.1514867,mobile_phone,OSM-5213706379,Springvale Shopping Centre,46-58 Buckingham Avenue,-37.950335,145.1506972,mall,OSM-221010715,0
356,La Stradda Cafe,,-37.8115213,144.9565801,cafe,OSM-635543926,Harbour View Apartments,583 - 585 La Trobe Street 3000,-37.8133827,144.9518872,hotel,OSM-16157901,0
357,Superdry outlet,,-37.824652,144.9495278,clothes,OSM-5045571921,South Wharf DFO,20 Convention Centre Place,-37.825147,144.9496339,mall,OSM-107666594,2
358,North Ringwood Family Pharmacy,198 Warrandyte Road 3134,-37.7945145,145.2355546,pharmacy,OSM-9049445878,Ringwood North Shopping Centre,204-206 Warrandyte Road 3134,-37.7942813,145.2359728,mall,OSM-980385416,0
359,Lim's Pharmacy,10A/8 Balmoral Avenue,-37.9496188,145.151234,pharmacy,OSM-4041045883,Springvale Shopping Centre,46-58 Buckingham Avenue,-37.950335,145.1506972,mall,OSM-221010715,0
360,Southern Cross Coach Terminal (Bay 62),,-37.8157772,144.9523186,bus_stop,OSM-7244246423,Owen Dixon Chambers East,205 William Street 3000,-37.8143576,144.957153,office,OSM-264277957,0
361,In A Rush Kitchen,,-37.818494,144.959211,cafe,OSM-617439485,Crown Entertainment Complex,8 Whiteman Street 3006,-37.8233312,144.958697,casino,OSM-13306836,0
362,Major General Charles George Gordon,,-37.8123562,144.9737458,artwork,OSM-589399515,St Vincent's Hospital,41 Victoria Parade 3065,-37.806832,144.974734,hospital,OSM-24530691,0
363,IGA,3088,-37.6875542,145.1082511,supermarket,OSM-1260369489,IGA,,-37.6875881,145.1082724,supermarket,OSM-6300369959,1
364,Pharmacy Select Hoppers Lane,,-37.8865625,144.7009549,pharmacy,OSM-6342952682,Wyndham Private Medical Centre,242 Hoppers Lane 3030,-37.8865835,144.7014367,hospital,OSM-511921069,2
365,Honorary General Consulate of the Czech Republic,500 Collins Street 3000,-37.8177213,144.9575592,office,OSM-5513661251,Owen Dixon Chambers East,205 William Street 3000,-37.8143576,144.957153,office,OSM-264277957,0
366,BWS,,-37.81168524577574,145.22875435729648,alcohol,YELP-9626242397,Eastland,175 Maroondah Highway 3134,-37.813042,145.2291281,mall,OSM-980791081,2
367,Taxback,,-37.8100049,144.9574071,office,OSM-5835550185,Owen Dixon Chambers West,525 Lonsdale Street 3000,-37.8142242,144.9566218,office,OSM-49961338,0
368,Doug Ellis Swimming Pool,,-37.9115896,145.1369688,leisure,OSM-0413795529,"Monash University, Clayton Campus",151-211 Wellington Road,-37.9106345,145.1364732,university,OSM-10585250,2
369,Redbubble,"Level 12, 697 Collins Street Two Melbourne Quarter 3008",-37.8206114,144.9517904,office,OSM-4269463937,South Wharf DFO,20 Convention Centre Place,-37.825147,144.9496339,mall,OSM-107666594,0
370,Nespresso,1341 Dandenong Rd Level 1 3148,-37.886221,145.082408,Coffee & Tea; Restaurants,YELP-291I85GYXEyK4GyhzVk642,Chadstone Shopping Centre,1341 Dandenong Road 3148,-37.8861084,145.082353,mall,OSM-25806278,2
371,Apple Store,,-37.8857606,145.0822298,electronics,OSM-836254635,Chadstone Shopping Centre,1341 Dandenong Road 3148,-37.8861084,145.082353,mall,OSM-25806278,2
372,Oscar Oscar Salons Highpoint,120-200 Rosamond Road 3032,-37.7726765,144.8892974,hairdresser,OSM-5535201246,Highpoint Shopping Centre,120-200 Rosamond Road 3032,-37.7732769,144.8887895,mall,OSM-29315932,2
373,Rebel,,-37.7754646,144.8875405,sports,OSM-9596028326,Highpoint Shopping Centre,120-200 Rosamond Road 3032,-37.7732769,144.8887895,mall,OSM-29315932,2
374,Tom's Grocery Plus,T2/200 Spencer Street 3000,-37.8162043,144.9530358,convenience,OSM-3012090065,Harbour View Apartments,583 - 585 La Trobe Street 3000,-37.8133827,144.9518872,hotel,OSM-16157901,0
375,Padre Coffee,,-37.8325632,144.9563452,coffee,OSM-8494158817,South Melbourne Market,322-326 Coventry Street 3205,-37.8323031,144.9565361,marketplace,OSM-26104523,2
376,Image Auto Parts,,-37.696758,144.7760872,car_repair,OSM-2285138754,Image Auto Parts,,-37.696744,144.7760873,car_repair,OSM-4925138398,1
377,Hunter & Barrel,,-37.81433929330532,145.22891886122366,restaurant,YELP-3073754168,Eastland,175 Maroondah Highway 3134,-37.813042,145.2291281,mall,OSM-980791081,2
378,The Good Guys,,-37.6960886,144.770998,electronics,OSM-8697235132,Watergardens Town Centre,399 Melton Highway 3038,-37.7006402,144.775359,mall,OSM-33658236,2
379,Seed Heritage,,-37.7724116,144.8897884,clothes,OSM-4611801672,Highpoint Shopping Centre,120-200 Rosamond Road 3032,-37.7732769,144.8887895,mall,OSM-29315932,2
380,Pandora,,-37.7720096,144.8885474,jewelry,OSM-8551801547,Pandora,,-37.7720181,144.8885035,jewelry,OSM-9571801491,1
381,Great Southern Bank,,-37.8168153,144.9584973,bank,OSM-9632353827,Batman’s Hill on Collins,623 Collins Street 3000,-37.8192061,144.9546639,hotel,OSM-14664549,0
382,O-Bento,45 Collins Street 3000,-37.8145999,144.9587784,restaurant,OSM-621541320,William Angliss Institute,555 La Trobe Street 3000,-37.8132797,144.9530117,college,OSM-191523966,0
383,Northland Shopping Centre (Bay 2) ,,-37.7404152,145.0285226,bus_stop,OSM-8820967111,Northland Shopping Centre,2-50 Murray Road 3072,-37.73846,145.0299923,mall,OSM-434341796,3
384,Oakleigh Station ,,-37.8995964,145.0877193,bus_stop,OSM-466582864,Oakleigh Market,12 Chester Street,-37.8997252,145.0892318,marketplace,OSM-168808800,3
385,Dingo2,,-37.6832544,145.5306031,viewpoint,OSM-7013581282,Healesville Sanctuary,Badger Creek Road 3777,-37.6842773,145.5313403,zoo,OSM-24386390,2
386,Knox City Shopping Centre (Bay 7) ,,-37.8693800,145.2388018,bus_stop,OSM-215307175,Westfield Knox Shopping Centre,425 Burwood Highway 3152,-37.8689832,145.2414832,mall,OSM-24026232,3
387,Burwood Highway,,-37.8513731,145.1198955,bus_stop,OSM-4266292154,Deakin University,221 Burwood Highway 3125,-37.8476637,145.1148614,university,OSM-180360037,0
388,Liquorland,211 La Trobe Street 3000,-37.8094923,144.9625568,alcohol,OSM-9319608523,RMIT University,3010,-37.8058398,144.9652999,university,OSM-26564452,0
389,Tower Sushi,,-37.8174778,144.9528968,fast_food,OSM-5288512322,Harbour View Apartments,583 - 585 La Trobe Street 3000,-37.8133827,144.9518872,hotel,OSM-16157901,0
390,The Pines SC (Bay 6),,-37.7628865,145.1677737,bus_stop,OSM-8296078093,The Pines Shopping Centre,181 Reynolds Road 3109,-37.7618221,145.1688329,mall,OSM-194057248,3
391,Decathlon,,-37.8373119,145.133162,sports,OSM-6042789997,HomeCo,Box Hill,-37.83779,145.1335468,mall,OSM-128776373,2
392,U Pharmacy,,-37.811572,144.971694,pharmacy,OSM-2174684611,St Vincent's Hospital,41 Victoria Parade 3065,-37.806832,144.974734,hospital,OSM-24530691,0
393,In a Rush,,-37.8129111,144.9701668,cafe,OSM-6018578496,RMIT University,124 La Trobe Street 3000,-37.8082251,144.9645927,university,OSM-616082731,0
394,Malaysian Garden Restaurant,Clayton Road,-37.924425,145.1197765,restaurant,OSM-9356415670,The Clayton Hotel,319 Clayton Road,-37.9243472,145.1195608,hotel,OSM-542404461,2
395,Chanel,,-37.8867973,145.080800,clothes,OSM-3801749146,Chadstone Shopping Centre,1341 Dandenong Road 3148,-37.8861084,145.082353,mall,OSM-25806278,2
396,Ookii Sushi,,-37.7269929,144.895478,restaurant,OSM-9601941083,Ookii Sushi,,-37.7269185,144.895432,restaurant,OSM-1271941508,1
397,Script. Bar & Bistro,140 Southbank Boulevard 3006,-37.823972,144.968052,bar,OSM-768250472,ABC Southbank Centre,120 Southbank Boulevard 3006,-37.8239868,144.9665183,studio,OSM-71188951,0
398,CUA,,-37.6538966,145.0188615,bank,OSM-7248874167,The Northern Hospital,185 Cooper Street 3076,-37.6531629,145.0139408,hospital,OSM-33765043,0
399,Uniqlo,,-37.8141708,145.2282123,clothes,OSM-8696999830,Uniqlo,,-37.8141880,145.2282830,clothes,OSM-2366999246,1
400,Mimco,"Shop 03, Chadstone Shopping Centre 1341 Dandenong Rd 3148",-37.8884471,145.0817606,Jewelry; Accessories,YELP-3671XkWRcSCgyVjMdpj774,Chadstone Shopping Centre,1341 Dandenong Road 3148,-37.8861084,145.082353,mall,OSM-25806278,2
401,TSG,,-37.8999900,145.0892141,tobacco,OSM-0628333020,Oakleigh Market,12 Chester Street,-37.8997252,145.0892318,marketplace,OSM-168808800,2
402,Oscar Oscar Salons Highpoint,,-37.771936044828213,144.88936240554543,hairdresser,YELP-2645201388,Highpoint Shopping Centre,120-200 Rosamond Road 3032,-37.7732769,144.8887895,mall,OSM-29315932,2
403,Pearson & Murphy's,124 La Trobe Street 3000,-37.8087105,144.96511,cafe,OSM-2754679837,RMIT University,124 La Trobe Street 3000,-37.8082251,144.9645927,university,OSM-616082731,2
404,Northland Shopping Centre (Bay 10) ,,-37.7405883,145.0281369,bus_stop,OSM-2885809478,Northland Shopping Centre,2-50 Murray Road 3072,-37.73846,145.0299923,mall,OSM-434341796,3
405,Colorful Yunnan,680 Swanston Street 3053,-37.8006108,144.9641714,restaurant,OSM-4951841849,RMIT University,3010,-37.8058398,144.9652999,university,OSM-26564452,0
406,LT13 (Rusden Theatre),,-37.8464608,145.1133049,theatre,OSM-5156639759,Deakin University,221 Burwood Highway 3125,-37.8476637,145.1148614,university,OSM-180360037,2
407,PTV Customer Service,,-37.8178668,144.9670424,information,OSM-7265713252,Ian Potter Centre: NGV Australia,Federation Square 3000,-37.8175394,144.9699711,museum,OSM-22963243,0
408,Best & Less,,-37.8687406,145.2393143,clothes,OSM-8817183859,Westfield Knox Shopping Centre,425 Burwood Highway 3152,-37.8689832,145.2414832,mall,OSM-24026232,2
409,Rebel,,-37.7754617,144.8875182,sports,OSM-5686028728,Highpoint Shopping Centre,120-200 Rosamond Road 3032,-37.7732769,144.8887895,mall,OSM-29315932,2
410,Commonwealth Bank,221 William Street 3000,-37.814259,144.957292,bank,OSM-633832606,Owen Dixon Chambers East,205 William Street 3000,-37.8143576,144.957153,office,OSM-264277957,2
411,Victorian Clinical Genetics Services,,-37.794383920995855,144.9502570430547,clinic,YELP-7834086121,Victorian Clinical Genetics Services,Flemington Road Royal Children's Hospital 3052,-37.7936604,144.9496822,clinic,OSM-7834086121,1
412,Balmoral Eye Clinic,14 Balmoral Avenue 1,-37.9495744,145.1505584,healthcare,OSM-5203747150,Springvale Shopping Centre,46-58 Buckingham Avenue,-37.950335,145.1506972,mall,OSM-221010715,0
413,Oakleigh Station,,-37.8996678,145.087891,bus_stop,OSM-677453210,Oakleigh Market,12 Chester Street,-37.8997252,145.0892318,marketplace,OSM-168808800,3
414,Angliss Hospital Opp Shop,,-37.88270629207921,145.29518110712923,charity,YELP-2463894976,Village Court,101 Station Street 3156,-37.8826049,145.2944984,mall,OSM-1027660472,2
415,Monash Eyecare,,-37.9115865,145.1326612,optician,OSM-3416932972,Monash Eyecare,,-37.9115171,145.1326457,optician,OSM-9736932057,1
416,Sarim's Cafe,375 King Street,-37.8128251,144.9539489,restaurant,OSM-8455276124,William Angliss Institute,555 La Trobe Street 3000,-37.8132797,144.9530117,college,OSM-191523966,2
417,Deloitte,477 Collins Street 3000,-37.8181444,144.9581662,office,OSM-9528406717,The Great Southern Hotel,44 Spencer Street 3000,-37.8196856,144.9548897,hotel,OSM-50504748,0
418,Charlene Fashion,17 Portman Street,-37.8999677,145.0893445,clothes,OSM-5248333532,Oakleigh Market,12 Chester Street,-37.8997252,145.0892318,marketplace,OSM-168808800,0
419,Summit Medical Group,853 Road,-37.7561002,144.9638396,doctors,OSM-6948042561,Three Phase Rehearsal Studios,8 Tinning Street 3056,-37.7591948,144.9624211,studio,OSM-585619986,0
420,Lygon Lodge,220 Lygon Street,-37.801908,144.9669884,motel,OSM-370744902,Melbourne Museum,11 Nicholson Street 3053,-37.80326,144.9716664,museum,OSM-4817074,0
421,Aussie Home Loans,,-37.815384211693086,145.228076842256,office,YELP-9345244596,Aussie Home Loans,,-37.815344576571115,145.228005804106,office,YELP-8335244318,1
422,Chemist Warehouse,,-37.8381169,145.1331686,pharmacy,OSM-4772790979,HomeCo,Box Hill,-37.83779,145.1335468,mall,OSM-128776373,2
423,Royal Hotel,,-37.821557,144.98958,pub,OSM-581941915,Epworth Richmond Hospital,89 Bridge Road,-37.8171882,144.9931287,hospital,OSM-29548387,0
424,YASSAS THE GREEK WAY,Eastland Town Square 3134,-37.814639,145.2286658,fast_food,OSM-3813754387,Eastland,175 Maroondah Highway 3134,-37.813042,145.2291281,mall,OSM-980791081,2
425,RAW Health + Fitness,282 Maroondah Highway 3116,-37.7670096,145.3058138,leisure,OSM-9345087852,Chirnside Homemaker Centre,282 Maroondah Highway 3116,-37.7663845,145.3058855,mall,OSM-207536171,2
426,U3A Ringwood,35-39 Tortice Drive 3134,-37.7836968,145.2418589,office,OSM-8649194517,Parkwood Community Hub,35-39 Tortice Drive 3134,-37.7836754,145.241736,community_centre,OSM-817218401,2
427,Optus,,-38.1407207,145.123735,mobile_phone,OSM-5040983977,Bayside Shopping Centre,28 Beach Street,-38.1417972,145.1239964,mall,OSM-683846477,2
428,Mythos Grill n Bar,15 Eaton Mall,-37.8992906,145.0899231,restaurant,OSM-5248293307,Oakleigh Market,12 Chester Street,-37.8997252,145.0892318,marketplace,OSM-168808800,0
429,John Curtin Hotel,29 Lygon St 3053,-37.8062,144.965856,Bars; Music Venues; Restaurants,YELP-f6higk13BeBR0dSNhaqQLw,RMIT University,3010,-37.8058398,144.9652999,university,OSM-26564452,2
430,The Moat Bar & Café,,-37.8093972064553,144.96528695198268,bar,YELP-2240626119,The Wheeler Centre,176 Little Lonsdale Street 3000,-37.8101765,144.9652219,,OSM-3453344810,0
431,Worksafe,,-37.7265,144.892,office,OSM-1973362893,Essendon Fields Central,30 English Street 3041,-37.7272529,144.8956144,mall,OSM-50103389,0
432,Julia Gillard Library,,-37.8359549084452,144.6966067685617,library,YELP-3844114444,Julia Gillard Library,150 Sunset Views Boulevard 3029,-37.8356476,144.6962131,library,OSM-3844114444,1
433,Clarinda Library,,-37.94015010066464,145.1014945103524,library,YELP-2130544814,Clarinda Community Centre,58 Viney Street 3169,-37.9404235,145.1022194,community_centre,OSM-56753242,2
434,Jane&Co Cafe,,-37.82379126245724,145.0358228381489,cafe,YELP-4182706343,Quest,616 Glenferrie Road 3122,-37.8234669,145.0356757,hotel,OSM-863435170,2
435,Roll This,,-37.7783135,144.8508564,fast_food,OSM-6089182120,HomeCo,Braybrook,-37.7784355,144.8509618,mall,OSM-112437488,2
436,Aussie Home Loans,,-37.815384211693086,145.228076842256,office,YELP-9345244596,Eastland,175 Maroondah Highway 3134,-37.813042,145.2291281,mall,OSM-980791081,2
437,Grill'd,,-37.8188941,145.0361687,fast_food,OSM-1971159444,Quest,616 Glenferrie Road 3122,-37.8234669,145.0356757,hotel,OSM-863435170,0
438,RAW Health + Fitness,282 Maroondah Highway 3116,-37.7670138,145.3058637,leisure,OSM-5805087483,Chirnside Homemaker Centre,282 Maroondah Highway 3116,-37.7663845,145.3058855,mall,OSM-207536171,2
439,BWS,,-37.80977,144.995492,alcohol,OSM-7281727067,The Hive,313-325 Victoria Street 3067,-37.8097238,144.9955377,mall,OSM-69963105,2
440,Northland Shopping Centre (Bay 10) ,,-37.7405730,145.0281093,bus_stop,OSM-2805480699,Northland Shopping Centre,2-50 Murray Road 3072,-37.73846,145.0299923,mall,OSM-434341796,3
441,Grafali's Coffee Roasters,,-37.911866,145.133190,cafe,OSM-4574869329,"Monash University, Clayton Campus",151-211 Wellington Road,-37.9106345,145.1364732,university,OSM-10585250,2
442,Chemist Warehouse,,-37.739744,145.0281677,chemist,OSM-8398572503,Northland Shopping Centre,2-50 Murray Road 3072,-37.73846,145.0299923,mall,OSM-434341796,0
443,Ferguson Plarre,,-37.6540189,145.0186365,cafe,OSM-5872880627,The Northern Hospital,185 Cooper Street 3076,-37.6531629,145.0139408,hospital,OSM-33765043,0
444,Chadstone Shopping Centre (Bay 9) ,,-37.8878558,145.0838988,bus_stop,OSM-0764538889,Chadstone Shopping Centre,1341 Dandenong Road 3148,-37.8861084,145.082353,mall,OSM-25806278,3
445,Knox City Shopping Centre (Bay 4) ,,-37.8693761,145.2382404,bus_stop,OSM-775607603,Westfield Knox Shopping Centre,425 Burwood Highway 3152,-37.8689832,145.2414832,mall,OSM-24026232,3
446,Clarendon Street,,-37.828249,144.9575724,bus_stop,OSM-4273126488,Baxter Institute (Automotive and Bakery Campus),93 Queens Bridge Street 3006,-37.8241579,144.960947,college,OSM-154296996,0
447,Station Street Green Co,,-37.8823367,145.2946614,cafe,OSM-1426178230,Village Court,101 Station Street 3156,-37.8826049,145.2944984,mall,OSM-1027660472,2
448,CBD Cycles,50 Bourke Street Shop 2 3000,-37.811564,144.971764,bicycle,OSM-1060602038,Hotel Ovolo,19 Little Bourke Street 3000,-37.8107508,144.9719983,hotel,OSM-225419339,0
449,Lucky Chan,,-37.82374282237123,144.9570656391808,restaurant,YELP-032284723,Crown Entertainment Complex,8 Whiteman Street 3006,-37.8233312,144.958697,casino,OSM-13306836,2
450,Monkey Bar Noodles & Sushi,10 King Street 3000,-37.8199162,144.9575957,restaurant,OSM-624940919,The Great Southern Hotel,44 Spencer Street 3000,-37.8196856,144.9548897,hotel,OSM-50504748,0
451,Sun Bookshop,10 Ballarat Street 3013,-37.8160627,144.8908891,books,OSM-4907302783,Sun Bookshop,,-37.8160711,144.8908247,books,OSM-2207302160,1
452,Readings,,-37.8094429,144.9663317,books,OSM-6237887803,State Library of Victoria,328 Swanston Street 3000,-37.8097018,144.965488,library,OSM-22820458,2
453,Maurice Blackburn,,-37.8131124,144.9583614,office,OSM-6887207861,Owen Dixon Chambers East,205 William Street 3000,-37.8143576,144.957153,office,OSM-264277957,0
454,Little Rays,,-37.783195,144.8322207,cafe,OSM-3864769015,Brimbank Community and Civic Centre,301 Hampshire Road 3020,-37.7831654,144.8320592,townhall,OSM-616285439,2
455,Watergardens Shopping Centre/Watergardens Circuit Road ,,-37.6972801,144.7735793,bus_stop,OSM-8625310196,Watergardens Town Centre,399 Melton Highway 3038,-37.7006402,144.775359,mall,OSM-33658236,3
456,Commonwealth Bank,,-37.8176473,144.9683587,atm,OSM-613722478,Ian Potter Centre: NGV Australia,Federation Square 3000,-37.8175394,144.9699711,museum,OSM-22963243,0
457,Hosier Lane,Hosier Lane 3000,-37.8163287,144.9690782,attraction,OSM-4936374477,Ian Potter Centre: NGV Australia,Federation Square 3000,-37.8175394,144.9699711,museum,OSM-22963243,0
458,Commonwealth Bank,,-37.8061575,144.9566309,atm,OSM-6267086701,RMIT University,124 La Trobe Street 3000,-37.8082251,144.9645927,university,OSM-616082731,0
459,Coles,,-38.3615757,144.8921262,supermarket,OSM-278111955,Coles,,-38.3615392,144.8921249,supermarket,OSM-539111891,1
460,RAW Health + Fitness,282 Maroondah Highway 3116,-37.7670096,145.3058138,leisure,OSM-9345087852,RAW Health + Fitness,,-37.76748068522608,145.30592085939864,leisure,YELP-9345087852,1
461,7-eleven,,-37.8127983,144.9674931,convenience,OSM-4728998189,RMIT University,124 La Trobe Street 3000,-37.8082251,144.9645927,university,OSM-616082731,0
462,Subway,,-37.820884,144.9491316,fast_food,OSM-5246726278,Batman’s Hill on Collins,623 Collins Street 3000,-37.8192061,144.9546639,hotel,OSM-14664549,0
463,Jane&Co Cafe,,-37.82370211947783,145.0358520174929,cafe,YELP-1592706077,Quest,616 Glenferrie Road 3122,-37.8234669,145.0356757,hotel,OSM-863435170,2
464,Target,,-38.3615964,144.890479,department_store,OSM-1188667664,Kmart,,-38.3615842,144.8912895,department_store,OSM-1188667667,0
465,Sarim's Cafe,375 King Street,-37.8128305,144.9539083,restaurant,OSM-5075276324,William Angliss Institute,555 La Trobe Street 3000,-37.8132797,144.9530117,college,OSM-191523966,2
466,Oakleigh Fish & Chippery,,-37.8996379,145.0920295,fast_food,OSM-5248321316,Oakleigh Market,12 Chester Street,-37.8997252,145.0892318,marketplace,OSM-168808800,0
467,JB Hi-Fi,,-37.8104498,144.9626461,electronics,OSM-8558867148,RMIT University,124 La Trobe Street 3000,-37.8082251,144.9645927,university,OSM-616082731,0
468,Parliament of Victoria,,-37.81486888129809,145.22779208246371,office,YELP-3535244712,Eastland,175 Maroondah Highway 3134,-37.813042,145.2291281,mall,OSM-980791081,2
469,Hunky Dory,,-37.6997141608328,144.77491294243117,restaurant,YELP-7561569460,Hunky Dory,,-37.6997165366253,144.77496930740596,restaurant,YELP-5101569352,1
470,ANZ,,-37.8075377,144.9621456,atm,OSM-968356072,State Library of Victoria,328 Swanston Street 3000,-37.8097018,144.965488,library,OSM-22820458,0
471,Slade Pharmacy,,-37.8176440,144.9929353,pharmacy,OSM-1828095609,Epworth Richmond Hospital,89 Bridge Road,-37.8171882,144.9931287,hospital,OSM-29548387,2
472,ANZ Worldline Payment Solutions,,-37.8214585,144.9497798,office,OSM-9708576389,Batman’s Hill on Collins,623 Collins Street 3000,-37.8192061,144.9546639,hotel,OSM-14664549,0
473,ANZ,,-37.8141022,144.9721082,atm,OSM-6986161405,Hotel Ovolo,19 Little Bourke Street 3000,-37.8107508,144.9719983,hotel,OSM-225419339,0
474,Lat’s Sushi,,-37.8328106,144.9560825,restaurant,OSM-3362483977,South Melbourne Market,322-326 Coventry Street 3205,-37.8323031,144.9565361,marketplace,OSM-26104523,2
475,Fancy Fillings,,-38.1418769,145.1243182,fast_food,OSM-8530903521,Bayside Shopping Centre,28 Beach Street,-38.1417972,145.1239964,mall,OSM-683846477,2
476,Chadstone Rd/Princes Hwy,,-37.8867967,145.0776879,bus_stop,OSM-5763782213,Chadstone Shopping Centre,1341 Dandenong Road 3148,-37.8861084,145.082353,mall,OSM-25806278,3
477,Courtyard 55,,-37.8072922,144.9749702,cafe,OSM-6609670460,St Vincent's Hospital,41 Victoria Parade 3065,-37.806832,144.974734,hospital,OSM-24530691,2
478,Sakura House,,-37.8691865,145.243100,restaurant,OSM-480776729,Westfield Knox Shopping Centre,425 Burwood Highway 3152,-37.8689832,145.2414832,mall,OSM-24026232,2
479,Melbourne Marriot Hotel,,-37.8098361,144.9692983,charging_station,OSM-6775859672,State Library of Victoria,328 Swanston Street 3000,-37.8097018,144.965488,library,OSM-22820458,0
480,Scotch College,,-37.8089058,144.9717257,historic,OSM-6810298861,Hotel Ovolo,19 Little Bourke Street 3000,-37.8107508,144.9719983,hotel,OSM-225419339,0
481,Michael's,,-37.7847813,144.8329822,convenience,OSM-5824861167,Brimbank Community and Civic Centre,301 Hampshire Road 3020,-37.7831654,144.8320592,townhall,OSM-616285439,0
482,Lyre Bird,,-37.6845777,145.5303935,viewpoint,OSM-3593584574,Healesville Sanctuary,Badger Creek Road 3777,-37.6842773,145.5313403,zoo,OSM-24386390,2
483,Food For Thought,,-37.8487498,145.114877,cafe,OSM-4856639935,Food For Thought,,-37.8487731,145.114888,cafe,OSM-2916639264,1
484,Bob Jane T-Marts,,-37.75980793668668,145.31161344096313,tyres,YELP-4119741696,Bob Jane T-Marts,Maroondah Highway 3116,-37.7590455,145.3108939,tyres,OSM-4119741696,1
485,Kealba Kindergarten,,-37.730425794041096,144.8254349083794,kindergarten,YELP-5389740291,Kealba Kindergarten,,-37.730468068084055,144.8254113865284,kindergarten,YELP-0759740204,1
486,Apple Store,,-37.8857696,145.0822739,electronics,OSM-998254752,Chadstone Shopping Centre,1341 Dandenong Road 3148,-37.8861084,145.082353,mall,OSM-25806278,2
487,Budget Avis Car Rental,,-37.8276073,144.9585112,car_rental,OSM-7098056185,South Melbourne Market,322-326 Coventry Street 3205,-37.8323031,144.9565361,marketplace,OSM-26104523,0
488,Lecco Pizzeria,14 Atherton Road,-37.8987252,145.0889614,restaurant,OSM-5248293320,Oakleigh Market,12 Chester Street,-37.8997252,145.0892318,marketplace,OSM-168808800,0
489,York Butter Factory,62-66 King Street 3000,-37.8187513,144.9570433,coworking_space,OSM-4585116019,Owen Dixon Chambers East,205 William Street 3000,-37.8143576,144.957153,office,OSM-264277957,0
490,Lien Hung Asian,,-37.9501883,145.15084,convenience,OSM-5213608177,Springvale Shopping Centre,46-58 Buckingham Avenue,-37.950335,145.1506972,mall,OSM-221010715,2
491,Rebel,,-37.766884840261625,145.3065418253162,sports,YELP-9345087850,Rebel,282 Maroondah Highway Chirnside Park 3116,-37.7672044,145.3057542,sports,OSM-9345087850,1
492,No 68 Medical Centre,68 Lonsdale Street,-37.8097206,144.970302,doctors,OSM-1080052561,RMIT University,3010,-37.8058398,144.9652999,university,OSM-26564452,0
493,Mezzo,35 Little Bourke Street 3000,-37.8107242,144.9716776,restaurant,OSM-2217880381,Hotel Ovolo,19 Little Bourke Street 3000,-37.8107508,144.9719983,hotel,OSM-225419339,0
494,Joe's Pizza Cafe,,-37.9116387,145.1357254,fast_food,OSM-8855663776,"Monash University, Clayton Campus",151-211 Wellington Road,-37.9106345,145.1364732,university,OSM-10585250,2
495,The Bottom End,577 Little Collins Street 3000,-37.8176673,144.9555369,pub,OSM-2345089322,Owen Dixon Chambers East,205 William Street 3000,-37.8143576,144.957153,office,OSM-264277957,0
496,Crown Towers Hotel,,-37.8224974,144.96008,hotel,OSM-122741147,Crown Food Court,,-37.8233185,144.9573055,food_court,OSM-2421608368,0
497,Country Bred on Lonsdale,,-37.810023,144.969245,cafe,OSM-3877513157,Hotel Ovolo,19 Little Bourke Street 3000,-37.8107508,144.9719983,hotel,OSM-225419339,0
498,Wing Loong,,-37.80678,144.960085,restaurant,OSM-2243047651,RMIT University,3010,-37.8058398,144.9652999,university,OSM-26564452,0
499,CBD Cycles,50 Bourke Street Shop 2 3000,-37.811564,144.971764,bicycle,OSM-1060602038,RMIT University,124 La Trobe Street 3000,-37.8082251,144.9645927,university,OSM-616082731,0
500,Doug Ellis Swimming Pool,,-37.9115934,145.1369772,leisure,OSM-2713795444,"Monash University, Clayton Campus",151-211 Wellington Road,-37.9106345,145.1364732,university,OSM-10585250,2
501,Boost Juice,399 Melton Highway K38B 3038,-37.6990871,144.7759868,cafe,OSM-5781569241,Watergardens Town Centre,399 Melton Highway 3038,-37.7006402,144.775359,mall,OSM-33658236,2
502,Udon Izakaya Maedaya,164 Bourke Street 3000,-37.812553,144.968306,restaurant,OSM-2103842421,RMIT University,124 La Trobe Street 3000,-37.8082251,144.9645927,university,OSM-616082731,0
503,Boom Communications,,-37.8135473,144.9660948,mobile_phone,OSM-5922126221,RMIT University,124 La Trobe Street 3000,-37.8082251,144.9645927,university,OSM-616082731,0
504,Bells Hotel,157 Moray Street 3205,-37.830888,144.962614,pub,OSM-2681580960,South Melbourne Market,322-326 Coventry Street 3205,-37.8323031,144.9565361,marketplace,OSM-26104523,0
505,Nando's,,-37.7269902,144.8958379,restaurant,OSM-3006800184,Essendon Fields Central,30 English Street 3041,-37.7272529,144.8956144,mall,OSM-50103389,2
506,Hush Bar,,-37.8690214,145.2428999,bar,OSM-667186532,Westfield Knox Shopping Centre,425 Burwood Highway 3152,-37.8689832,145.2414832,mall,OSM-24026232,2
507,Glue Store,,-37.811013,144.96474,clothes,OSM-844360708,RMIT University,3010,-37.8058398,144.9652999,university,OSM-26564452,0
508,Mipasto,,-37.778303,144.8509980,fast_food,OSM-2369182354,HomeCo,Braybrook,-37.7784355,144.8509618,mall,OSM-112437488,2
509,Subway,,-37.8355531,145.1657799,fast_food,OSM-6125951931,Forest Hill Chase Shopping Centre,270 Canterbury Road,-37.8355701,145.1648481,mall,OSM-24039664,2
510,YASSAS THE GREEK WAY,,-37.81406666596343,145.2287394237431,fast_food,YELP-0693754532,Eastland,175 Maroondah Highway 3134,-37.813042,145.2291281,mall,OSM-980791081,2
511,Chemist Warehouse,,-37.8381776,145.1331316,pharmacy,OSM-6042790000,HomeCo,Box Hill,-37.83779,145.1335468,mall,OSM-128776373,2
512,Bob Jane T-Marts,Maroondah Highway 3116,-37.7590455,145.3108939,tyres,OSM-4119741696,Bob Jane T-Marts,,-37.75980793668668,145.31161344096313,tyres,YELP-4119741696,1
513,Station Street Green Co,101 Station Street 13 3156,-37.8823652,145.2946411,cafe,OSM-9446178375,Village Court,101 Station Street 3156,-37.8826049,145.2944984,mall,OSM-1027660472,2
514,Friendly Grocer,3-4 Hall Street 3015,-37.8439757,144.8843952,convenience,OSM-6869455213,Newport Community Hub,13 Mason Street 3015,-37.8429738,144.8816964,community_centre,OSM-514213764,0
515,Shiny Star Nails,,-37.7781993,144.850541,beauty,OSM-2879182952,HomeCo,Braybrook,-37.7784355,144.8509618,mall,OSM-112437488,2
516,Ten Miles,,-37.8236454,144.9572102,restaurant,OSM-5769832953,The Great Southern Hotel,44 Spencer Street 3000,-37.8196856,144.9548897,hotel,OSM-50504748,0
517,Cafe Alfretti,,-37.8461833,144.9843474,cafe,OSM-8470434804,Alfred Hospital,55 Commercial Road,-37.8461529,144.9825892,hospital,OSM-265910010,2
518,Bubble Cup Fresh,,-37.69970228247352,144.77803468768408,fast_food,YELP-6081569738,Watergardens Town Centre,399 Melton Highway 3038,-37.7006402,144.775359,mall,OSM-33658236,2
519,5 & Dime Bagels,16 Katherine Place 3000,-37.8199352,144.9565389,bakery,OSM-8537078521,Crown Entertainment Complex,8 Whiteman Street 3006,-37.8233312,144.958697,casino,OSM-13306836,0
520,ABC Radio Melbourne,120 Southbank Boulevard 3006,-37.823803,144.9667435,studio,OSM-8640612041,ABC Southbank Centre,120 Southbank Boulevard 3006,-37.8239868,144.9665183,studio,OSM-71188951,2
521,Bar Centrale,,-37.8034187,144.9666667,pub,OSM-471340955,RMIT University,3010,-37.8058398,144.9652999,university,OSM-26564452,0
522,TGI Friday's,,-37.821617,144.961794,restaurant,OSM-2699454630,ABC Southbank Centre,120 Southbank Boulevard 3006,-37.8239868,144.9665183,studio,OSM-71188951,0
523,Best & Less,,-37.8687161,145.2393245,clothes,OSM-4427183976,Westfield Knox Shopping Centre,425 Burwood Highway 3152,-37.8689832,145.2414832,mall,OSM-24026232,2
524,Martin York,,-37.8141105,145.2290664,clothes,OSM-3813754400,Kmart,3134,-37.8118343,145.2286232,department_store,OSM-3903836925,0
525,Grafali's Coffee Roasters,,-37.911816,145.133102,cafe,OSM-4334869021,"Monash University, Clayton Campus",151-211 Wellington Road,-37.9106345,145.1364732,university,OSM-10585250,2
526,Nine Network GTV-9,,-37.8186605,144.9501956,studio,OSM-2266567729,Batman’s Hill on Collins,623 Collins Street 3000,-37.8192061,144.9546639,hotel,OSM-14664549,0
527,Two Minutes Turkish,,-37.7265950694882,144.89532036035558,cafe,YELP-3136427717,Essendon Fields Central,30 English Street 3041,-37.7272529,144.8956144,mall,OSM-50103389,2
528,C2 Hair Salon,213 Bourke Street 3000,-37.813192,144.967266,hairdresser,OSM-2503429012,State Library of Victoria,328 Swanston Street 3000,-37.8097018,144.965488,library,OSM-22820458,0
529,Hoyts,,-37.8350714,145.1654248,cinema,OSM-2167970627,Forest Hill Chase Shopping Centre,270 Canterbury Road,-37.8355701,145.1648481,mall,OSM-24039664,2
530,Slade Pharmacy,,-37.8176148,144.9929015,pharmacy,OSM-0878095696,Epworth Richmond Hospital,89 Bridge Road,-37.8171882,144.9931287,hospital,OSM-29548387,2
531,Customs Lane News,,-37.8196247,144.959006,newsagent,OSM-2790472398,Baxter Institute (Automotive and Bakery Campus),93 Queens Bridge Street 3006,-37.8241579,144.960947,college,OSM-154296996,0
532,Restaurant 1903,,-37.819746,144.95475,restaurant,OSM-642420346,The Great Southern Hotel,44 Spencer Street 3000,-37.8196856,144.9548897,hotel,OSM-50504748,2
533,Commonwealth Bank,8 Swanston Street,-37.8086693,144.9637876,bank,OSM-029209063,RMIT University,124 La Trobe Street 3000,-37.8082251,144.9645927,university,OSM-616082731,2
534,Lincraft,,-37.7751301,144.8900344,fabric,OSM-9170410055,Highpoint Shopping Centre,120-200 Rosamond Road 3032,-37.7732769,144.8887895,mall,OSM-29315932,2
535,Goodlife Health Clubs,,-37.8146562,145.2292118,leisure,OSM-8125227893,Eastland,175 Maroondah Highway 3134,-37.813042,145.2291281,mall,OSM-980791081,2
536,The Pines SC (Bay 2) ,,-37.7628637,145.168592,bus_stop,OSM-5144897775,The Pines Shopping Centre,181 Reynolds Road 3109,-37.7618221,145.1688329,mall,OSM-194057248,3
537,Priceline Pharmacy,,-37.868939,145.2404521,pharmacy,OSM-8697183686,Westfield Knox Shopping Centre,425 Burwood Highway 3152,-37.8689832,145.2414832,mall,OSM-24026232,2
538,Kmart,Chadstone,-37.8855975,145.0841209,department_store,OSM-102543656,Chadstone Shopping Centre,1341 Dandenong Road 3148,-37.8861084,145.082353,mall,OSM-25806278,2
539,Caulfield Library,,-37.8802838,145.0225833,library,OSM-4965948721,Caulfield Library,,-37.8802694,145.0225703,library,OSM-9025948486,1
540,Presstine Dry Cleaners,727 Collins Street T42C 3008,-37.8211506,144.9496295,dry_cleaning,OSM-6856206129,South Wharf DFO,20 Convention Centre Place,-37.825147,144.9496339,mall,OSM-107666594,0
541,Coffee Roaster,325 Flinders Lane,-37.817628,144.963416,cafe,OSM-2296805515,Ian Potter Centre: NGV Australia,Federation Square 3000,-37.8175394,144.9699711,museum,OSM-22963243,0
542,Coles,,-37.869538,145.2414099,supermarket,OSM-460559691,Westfield Knox Shopping Centre,425 Burwood Highway 3152,-37.8689832,145.2414832,mall,OSM-24026232,2
543,South Melbourne Central Car Park ,,-37.8305963,144.957427,parking,OSM-0585754140,South Melbourne Market,322-326 Coventry Street 3205,-37.8323031,144.9565361,marketplace,OSM-26104523,3
544,NSW Translink Office,,-37.8172742,144.9527662,ticket,OSM-6913895170,Owen Dixon Chambers East,205 William Street 3000,-37.8143576,144.957153,office,OSM-264277957,0
545,TAB,,-37.81812,144.959028,bookmaker,OSM-973479604,Owen Dixon Chambers West,525 Lonsdale Street 3000,-37.8142242,144.9566218,office,OSM-49961338,0
546,Central Lawn,,-37.8291052,145.0221814,leisure,OSM-2358675582,The University of Melbourne Burnley Campus,500 Yarra Boulevard 3121,-37.828804,145.0228204,university,OSM-30973454,2
547,French Cafe,,-37.7781815,144.8507132,cafe,OSM-6089182123,HomeCo,Braybrook,-37.7784355,144.8509618,mall,OSM-112437488,2
548,Caffeine,,-37.8462081,145.1135666,cafe,OSM-4856639946,Deakin University,221 Burwood Highway 3125,-37.8476637,145.1148614,university,OSM-180360037,2
549,Bubble Cup Fresh,399 Melton Highway 41 3038,-37.6991416,144.7782218,fast_food,OSM-8541569998,Watergardens Town Centre,399 Melton Highway 3038,-37.7006402,144.775359,mall,OSM-33658236,2
550,Mamasita,,-37.8136976,144.9733557,restaurant,OSM-3424227693,Hotel Ovolo,19 Little Bourke Street 3000,-37.8107508,144.9719983,hotel,OSM-225419339,0
551,TSG,,-37.8999622,145.0892527,tobacco,OSM-5248333535,TSG,,-37.8999782,145.0892960,tobacco,OSM-9788333786,1
552,Nusantara,,-37.813773,144.9667705,restaurant,OSM-6357531500,Ian Potter Centre: NGV Australia,Federation Square 3000,-37.8175394,144.9699711,museum,OSM-22963243,0
553,Fandango,97 Errol Street 3051,-37.8026202,144.9494987,cafe,OSM-8522399248,Miami Hotel Melbourne,13 Hawke Street 3003,-37.8061193,144.9485155,hotel,OSM-314945360,0
554,Baci,,-37.8226426,144.9585822,cafe,OSM-2421608378,Boyd Community Hub,207-229 City Road 3006,-37.8256253,144.9611059,public_building,OSM-225370260,0
555,Kere Kere,,-37.8254927014455,144.9608542234178,cafe,YELP-2696094394,Boyd Community Hub,207-229 City Road 3006,-37.8256253,144.9611059,public_building,OSM-225370260,2
556,Medical For Everybody,,-37.76708789870561,145.3054218261663,clinic,YELP-9345087851,Chirnside Homemaker Centre,282 Maroondah Highway 3116,-37.7663845,145.3058855,mall,OSM-207536171,2
557,Senior Students VCE Resource Centre,,-37.8139503,144.9665696,office,OSM-6357531496,Ian Potter Centre: NGV Australia,Federation Square 3000,-37.8175394,144.9699711,museum,OSM-22963243,0
558,Breadtop,,-37.812846,144.96725,bakery,OSM-1060600610,Ian Potter Centre: NGV Australia,Federation Square 3000,-37.8175394,144.9699711,museum,OSM-22963243,0
559,Parliament of Victoria,,-37.81487425484718,145.22774003456328,office,YELP-9345244597,Parliament of Victoria,171-175 Maroondah Highway 3134,-37.8146821,145.2277156,office,OSM-9345244597,1
560,Hugo's Express,,-37.8178619,144.9548526,cafe,OSM-3291840662,Epic Centre,620 Bourke Street 3000,-37.8162335,144.955325,office,OSM-51710858,0
561,Souvlaki Only By Zorba's,356 Bay Street 3207,-37.836099,144.944887,fast_food,OSM-1682840556,Port Melbourne Town Hall,333 Bay Street 3207,-37.8356366,144.9445561,townhall,OSM-27553097,0
562,Pho Dzung,234B Russell Street 3000,-37.8109993,144.967506,restaurant,OSM-844667461,RMIT University,3010,-37.8058398,144.9652999,university,OSM-26564452,0
563,Heirloom,,-37.812656,144.969264,restaurant,OSM-1123093089,Hotel Ovolo,19 Little Bourke Street 3000,-37.8107508,144.9719983,hotel,OSM-225419339,0
564,Apple Store,,-37.7724181,144.8903206,electronics,OSM-8551801544,Highpoint Shopping Centre,120-200 Rosamond Road 3032,-37.7732769,144.8887895,mall,OSM-29315932,2
565,Food Market (4th Saturday),,-37.8025424,145.003691,marketplace,OSM-0955774800,Abbotsford Convent,1 St Heliers Street 3067,-37.8030061,145.0037542,attraction,OSM-666244249,2
566,Eyes On,,-37.8141059,144.960091,optician,OSM-1292397868,Owen Dixon Chambers East,205 William Street 3000,-37.8143576,144.957153,office,OSM-264277957,0
567,Schnitz,,-37.8688831,145.2423769,fast_food,OSM-3066665792,Westfield Knox Shopping Centre,425 Burwood Highway 3152,-37.8689832,145.2414832,mall,OSM-24026232,2
568,Northland Shopping Centre (Bay 7) ,,-37.7405034,145.0283452,bus_stop,OSM-7362907313,Northland Shopping Centre,2-50 Murray Road 3072,-37.73846,145.0299923,mall,OSM-434341796,3
569,Aruba,,-37.812609,144.969352,cafe,OSM-997417415,State Library of Victoria,328 Swanston Street 3000,-37.8097018,144.965488,library,OSM-22820458,0
570,Crown Food Court,,-37.8233978,144.9573028,food_court,OSM-1871608000,Crown Entertainment Complex,8 Whiteman Street 3006,-37.8233312,144.958697,casino,OSM-13306836,2
571,Cannoleria,399 Melton Highway 43 3038,-37.6991348,144.7784635,fast_food,OSM-7561569463,Calavera,399 Melton Highway 42 3038,-37.6990844,144.7783786,cafe,OSM-7561569464,0
572,City Road/Southbank Boulevard,,-37.8231679,144.9655746,bus_stop,OSM-8516354340,Boyd Community Hub,207-229 City Road 3006,-37.8256253,144.9611059,public_building,OSM-225370260,0
573,"Beer, Wine and Calzone",,-37.8111644,144.9563955,bar,OSM-4265464789,Pegasus Apart'Hotel,206 A'Beckett Street 3000,-37.8100667,144.9570933,hotel,OSM-245924501,0
574,Southern Cross Coach Terminal (Bay 69),,-37.8153866,144.9521515,bus_stop,OSM-7244246416,Epic Centre,620 Bourke Street 3000,-37.8162335,144.955325,office,OSM-51710858,0
575,Hunky Dory,,-37.6997019796307,144.77498993812710,restaurant,YELP-5061569741,Watergardens Town Centre,399 Melton Highway 3038,-37.7006402,144.775359,mall,OSM-33658236,2
576,Café Baxter,,-37.824196,144.960776,cafe,OSM-9765337818,Baxter Institute (Automotive and Bakery Campus),93 Queens Bridge Street 3006,-37.8241579,144.960947,college,OSM-154296996,2
577,JB Hi-Fi,,-38.1412590,145.1245272,electronics,OSM-6140129231,Bayside Shopping Centre,28 Beach Street,-38.1417972,145.1239964,mall,OSM-683846477,2
578,Teh-Tarik Corner (Halal Food),5/441-445 Elizabeth Street,-37.8085963,144.9603456,cafe,OSM-5640995222,State Library of Victoria,328 Swanston Street 3000,-37.8097018,144.965488,library,OSM-22820458,0
579,iChauffeur Australia,44 Freshwater Place 3006,-37.8221783,144.9621207,car_rental,OSM-3929948031,Boyd Community Hub,207-229 City Road 3006,-37.8256253,144.9611059,public_building,OSM-225370260,0
580,Comas Grove/Normanby Avenue,,-37.757792,144.9850401,bus_stop,OSM-7368219403,Islamic Museum of Australia,15A Anderson Road 3071,-37.7545199,144.9807272,museum,OSM-267164272,0
581,De Carle Street/Albion Street,,-37.7609813,144.9649054,bus_stop,OSM-7225981993,Three Phase Rehearsal Studios,8 Tinning Street 3056,-37.7591948,144.9624211,studio,OSM-585619986,0
582,Coles,,-37.7272745,144.895327,supermarket,OSM-255217280,Essendon Fields Central,30 English Street 3041,-37.7272529,144.8956144,mall,OSM-50103389,2
583,Cellarbrations,,-37.8211432,144.9555612,alcohol,OSM-9026510343,The Great Southern Hotel,44 Spencer Street 3000,-37.8196856,144.9548897,hotel,OSM-50504748,0
584,Original Lolly Store,239 Lygon Street,-37.7997877,144.9668907,confectionery,OSM-678361038,Melbourne Museum,11 Nicholson Street 3053,-37.80326,144.9716664,museum,OSM-4817074,0
585,Meeting Point,,-37.9117181,145.1328475,cafe,OSM-621555886,Meeting Point,,-37.9117056,145.1328736,cafe,OSM-092555845,1
586,Hometown Asian Supermarket,,-37.8085182,144.9607589,supermarket,OSM-2713309468,Ibis Hotel Melbourne,15-21 Therry Street,-37.8069455,144.9612899,hotel,OSM-310012725,0
587,The Pines SC (Bay 2) ,,-37.7628190,145.168504,bus_stop,OSM-7018081117,Pines Learning & Activity Centre,520 Blackburn Road 3109,-37.7604696,145.1694083,community_centre,OSM-175839231,3
588,Cafe Nesso,,-37.9138418,145.1328837,cafe,OSM-5680708788,"Monash University, Clayton Campus",151-211 Wellington Road,-37.9106345,145.1364732,university,OSM-10585250,2
589,Boom Communications,,-37.8135473,144.9660948,mobile_phone,OSM-5922126221,Ian Potter Centre: NGV Australia,Federation Square 3000,-37.8175394,144.9699711,museum,OSM-22963243,0
590,Southern Cross Coach Terminal (Bay 66),,-37.815554,144.9522231,bus_stop,OSM-7244246419,Harbour View Apartments,583 - 585 La Trobe Street 3000,-37.8133827,144.9518872,hotel,OSM-16157901,0
591,Three Red Stripes,,-37.7608553,145.1691205,restaurant,OSM-5593448986,The Pines Shopping Centre,181 Reynolds Road 3109,-37.7618221,145.1688329,mall,OSM-194057248,2
592,Millers,,-37.7811653,144.8313142,clothes,OSM-5824764100,Brimbank Community and Civic Centre,301 Hampshire Road 3020,-37.7831654,144.8320592,townhall,OSM-616285439,0
